[
  {
    "id": 264,
    "name": "Belize",
    "iso2": "BZ",
    "native": "Belize",
    "latitude": "17.50027680",
    "longitude": "-88.19887370",
    "type": "district",
    "timezone": "America/Belize",
    "CountryID": 23
  },
  {
    "id": 269,
    "name": "Cayo",
    "iso2": "CY",
    "native": "Cayo",
    "latitude": "17.15827760",
    "longitude": "-89.06816720",
    "type": "district",
    "timezone": "America/Belize",
    "CountryID": 23
  },
  {
    "id": 266,
    "name": "Corozal",
    "iso2": "CZL",
    "native": "Corozal",
    "latitude": "18.22763240",
    "longitude": "-88.29212570",
    "type": "district",
    "timezone": "America/Belize",
    "CountryID": 23
  },
  {
    "id": 268,
    "name": "Orange Walk",
    "iso2": "OW",
    "native": "Orange Walk",
    "latitude": "17.78318330",
    "longitude": "-88.86202830",
    "type": "district",
    "timezone": "America/Belize",
    "CountryID": 23
  },
  {
    "id": 265,
    "name": "Stann Creek",
    "iso2": "SC",
    "native": "Stann Creek",
    "latitude": "16.96665990",
    "longitude": "-88.22473680",
    "type": "district",
    "timezone": "America/Belize",
    "CountryID": 23
  },
  {
    "id": 267,
    "name": "Toledo",
    "iso2": "TOL",
    "native": "Toledo",
    "latitude": "16.13455720",
    "longitude": "-88.82190410",
    "type": "district",
    "timezone": "America/Belize",
    "CountryID": 23
  }
]