[
  {
    "id": 1215,
    "name": "Alajuela",
    "iso2": "A",
    "native": "Alajuela",
    "latitude": "10.45233160",
    "longitude": "-84.46632840",
    "type": "province",
    "timezone": "America/Costa_Rica",
    "CountryID": 53
  },
  {
    "id": 1211,
    "name": "Cartago",
    "iso2": "C",
    "native": "Cartago",
    "latitude": "9.86223110",
    "longitude": "-83.92141870",
    "type": "province",
    "timezone": "America/Costa_Rica",
    "CountryID": 53
  },
  {
    "id": 1209,
    "name": "Guanacaste",
    "iso2": "G",
    "native": "Guanacaste",
    "latitude": "10.37884410",
    "longitude": "-85.43382870",
    "type": "province",
    "timezone": "America/Costa_Rica",
    "CountryID": 53
  },
  {
    "id": 1212,
    "name": "Heredia",
    "iso2": "H",
    "native": "Heredia",
    "latitude": "10.37678130",
    "longitude": "-84.01397210",
    "type": "province",
    "timezone": "America/Costa_Rica",
    "CountryID": 53
  },
  {
    "id": 1213,
    "name": "Limón",
    "iso2": "L",
    "native": "Limón",
    "latitude": "9.98963980",
    "longitude": "-83.03324170",
    "type": "province",
    "timezone": "America/Costa_Rica",
    "CountryID": 53
  },
  {
    "id": 1210,
    "name": "Puntarenas",
    "iso2": "P",
    "native": "Puntarenas",
    "latitude": "9.09532790",
    "longitude": "-84.20030380",
    "type": "province",
    "timezone": "America/Costa_Rica",
    "CountryID": 53
  },
  {
    "id": 1214,
    "name": "San José",
    "iso2": "SJ",
    "native": "San José",
    "latitude": "9.93254270",
    "longitude": "-84.07957820",
    "type": "province",
    "timezone": "America/Costa_Rica",
    "CountryID": 53
  }
]