[
  {
    "id": 9762,
    "name": "Bubanza",
    "latitude": "-3.08040000",
    "longitude": "29.39100000",
    "CountryID": 36,
    "StateID": 3196
  },
  {
    "id": 9763,
    "name": "Bujumbura",
    "latitude": "-3.38193000",
    "longitude": "29.36142000",
    "CountryID": 36,
    "StateID": 3198
  },
  {
    "id": 9764,
    "name": "Bururi",
    "latitude": "-3.94877000",
    "longitude": "29.62438000",
    "CountryID": 36,
    "StateID": 3202
  },
  {
    "id": 9765,
    "name": "Cankuzo",
    "latitude": "-3.21860000",
    "longitude": "30.55280000",
    "CountryID": 36,
    "StateID": 3201
  },
  {
    "id": 9766,
    "name": "Cibitoke",
    "latitude": "-2.88690000",
    "longitude": "29.12480000",
    "CountryID": 36,
    "StateID": 3190
  },
  {
    "id": 9767,
    "name": "Gitega",
    "latitude": "-3.42708000",
    "longitude": "29.92463000",
    "CountryID": 36,
    "StateID": 3197
  },
  {
    "id": 9768,
    "name": "Karuzi",
    "latitude": "-3.10139000",
    "longitude": "30.16278000",
    "CountryID": 36,
    "StateID": 3194
  },
  {
    "id": 9769,
    "name": "Kayanza",
    "latitude": "-2.92210000",
    "longitude": "29.62930000",
    "CountryID": 36,
    "StateID": 3192
  },
  {
    "id": 9770,
    "name": "Kirundo",
    "latitude": "-2.58450000",
    "longitude": "30.09590000",
    "CountryID": 36,
    "StateID": 3195
  },
  {
    "id": 9771,
    "name": "Makamba",
    "latitude": "-4.13480000",
    "longitude": "29.80400000",
    "CountryID": 36,
    "StateID": 3188
  },
  {
    "id": 9772,
    "name": "Muramvya",
    "latitude": "-3.26820000",
    "longitude": "29.60790000",
    "CountryID": 36,
    "StateID": 3193
  },
  {
    "id": 9773,
    "name": "Muyinga",
    "latitude": "-2.84510000",
    "longitude": "30.34140000",
    "CountryID": 36,
    "StateID": 3186
  },
  {
    "id": 9774,
    "name": "Mwaro",
    "latitude": "-3.51128000",
    "longitude": "29.70334000",
    "CountryID": 36,
    "StateID": 3187
  },
  {
    "id": 9775,
    "name": "Ngozi",
    "latitude": "-2.90750000",
    "longitude": "29.83060000",
    "CountryID": 36,
    "StateID": 3199
  },
  {
    "id": 9776,
    "name": "Rumonge",
    "latitude": "-3.97360000",
    "longitude": "29.43860000",
    "CountryID": 36,
    "StateID": 3185
  },
  {
    "id": 9777,
    "name": "Rutana",
    "latitude": "-3.92790000",
    "longitude": "29.99200000",
    "CountryID": 36,
    "StateID": 3189
  },
  {
    "id": 9778,
    "name": "Ruyigi",
    "latitude": "-3.47639000",
    "longitude": "30.24861000",
    "CountryID": 36,
    "StateID": 3191
  }
]