[
  {
    "id": 3196,
    "name": "Bubanza",
    "iso2": "BB",
    "native": "Bubanza",
    "latitude": "-3.11127870",
    "longitude": "29.38283580",
    "type": "province",
    "timezone": "Africa/Bujumbura",
    "CountryID": 36
  },
  {
    "id": 3198,
    "name": "Bujumbura Mairie",
    "iso2": "BM",
    "native": "Bujumbura Mairie",
    "latitude": "-3.34939590",
    "longitude": "29.36318430",
    "type": "province",
    "timezone": "Africa/Bujumbura",
    "CountryID": 36
  },
  {
    "id": 3200,
    "name": "Bujumbura Rural",
    "iso2": "BL",
    "native": "Rural de Bujumbura",
    "latitude": "-3.47598170",
    "longitude": "29.45357020",
    "type": "province",
    "timezone": "Africa/Bujumbura",
    "CountryID": 36
  },
  {
    "id": 3202,
    "name": "Bururi",
    "iso2": "BR",
    "native": "Bururi",
    "latitude": "-3.85815920",
    "longitude": "29.58437900",
    "type": "province",
    "timezone": "Africa/Bujumbura",
    "CountryID": 36
  },
  {
    "id": 3201,
    "name": "Cankuzo",
    "iso2": "CA",
    "native": "Faire du chauffeur",
    "latitude": "-3.14508760",
    "longitude": "30.58987000",
    "type": "province",
    "timezone": "Africa/Bujumbura",
    "CountryID": 36
  },
  {
    "id": 3190,
    "name": "Cibitoke",
    "iso2": "CI",
    "native": "Cibitoke",
    "latitude": "-2.84773410",
    "longitude": "29.26166200",
    "type": "province",
    "timezone": "Africa/Bujumbura",
    "CountryID": 36
  },
  {
    "id": 3197,
    "name": "Gitega",
    "iso2": "GI",
    "native": "Gitega",
    "latitude": "-3.53823360",
    "longitude": "29.91070100",
    "type": "province",
    "timezone": "Africa/Bujumbura",
    "CountryID": 36
  },
  {
    "id": 3194,
    "name": "Karuzi",
    "iso2": "KR",
    "native": "Karuzi",
    "latitude": "-3.12553770",
    "longitude": "30.09783470",
    "type": "province",
    "timezone": "Africa/Bujumbura",
    "CountryID": 36
  },
  {
    "id": 3192,
    "name": "Kayanza",
    "iso2": "KY",
    "native": "Kayanza",
    "latitude": "-3.02148160",
    "longitude": "29.64580340",
    "type": "province",
    "timezone": "Africa/Bujumbura",
    "CountryID": 36
  },
  {
    "id": 3195,
    "name": "Kirundo",
    "iso2": "KI",
    "native": "Kirundo",
    "latitude": "-2.58538720",
    "longitude": "30.09334490",
    "type": "province",
    "timezone": "Africa/Bujumbura",
    "CountryID": 36
  },
  {
    "id": 3188,
    "name": "Makamba",
    "iso2": "MA",
    "native": "Makamba",
    "latitude": "-4.19783150",
    "longitude": "29.80739960",
    "type": "province",
    "timezone": "Africa/Bujumbura",
    "CountryID": 36
  },
  {
    "id": 3193,
    "name": "Muramvya",
    "iso2": "MU",
    "native": "Muramvya",
    "latitude": "-3.27511810",
    "longitude": "29.63078550",
    "type": "province",
    "timezone": "Africa/Bujumbura",
    "CountryID": 36
  },
  {
    "id": 3186,
    "name": "Muyinga",
    "iso2": "MY",
    "native": "Muyinga",
    "latitude": "-2.73359850",
    "longitude": "30.31714410",
    "type": "province",
    "timezone": "Africa/Bujumbura",
    "CountryID": 36
  },
  {
    "id": 3187,
    "name": "Mwaro",
    "iso2": "MW",
    "native": "Mwaro",
    "latitude": "-3.46500430",
    "longitude": "29.67085080",
    "type": "province",
    "timezone": "Africa/Bujumbura",
    "CountryID": 36
  },
  {
    "id": 3199,
    "name": "Ngozi",
    "iso2": "NG",
    "native": "Ngozi",
    "latitude": "-2.87768950",
    "longitude": "29.89949860",
    "type": "province",
    "timezone": "Africa/Bujumbura",
    "CountryID": 36
  },
  {
    "id": 3185,
    "name": "Rumonge",
    "iso2": "RM",
    "native": "Rumange",
    "latitude": "-3.97540490",
    "longitude": "29.43880140",
    "type": "province",
    "timezone": "Africa/Bujumbura",
    "CountryID": 36
  },
  {
    "id": 3189,
    "name": "Rutana",
    "iso2": "RT",
    "native": "Rutana",
    "latitude": "-3.86187140",
    "longitude": "30.06769790",
    "type": "province",
    "timezone": "Africa/Bujumbura",
    "CountryID": 36
  },
  {
    "id": 3191,
    "name": "Ruyigi",
    "iso2": "RY",
    "native": "Ruyigi",
    "latitude": "-3.47334710",
    "longitude": "30.25012780",
    "type": "province",
    "timezone": "Africa/Bujumbura",
    "CountryID": 36
  }
]