[
  {
    "id": 160431,
    "name": "Bomarsund",
    "latitude": "60.21234000",
    "longitude": "20.24023000",
    "CountryID": 2,
    "StateID": 5288
  },
  {
    "id": 160427,
    "name": "Finström",
    "latitude": "60.26667000",
    "longitude": "19.93333000",
    "CountryID": 2,
    "StateID": 5288
  },
  {
    "id": 160432,
    "name": "Godby",
    "latitude": "60.22995000",
    "longitude": "19.98810000",
    "CountryID": 2,
    "StateID": 5288
  },
  {
    "id": 160428,
    "name": "Hammarland",
    "latitude": "60.21667000",
    "longitude": "19.75000000",
    "CountryID": 2,
    "StateID": 5288
  },
  {
    "id": 160429,
    "name": "Jomala",
    "latitude": "60.14902000",
    "longitude": "19.95100000",
    "CountryID": 2,
    "StateID": 5288
  },
  {
    "id": 160433,
    "name": "Lemland",
    "latitude": "60.07178000",
    "longitude": "20.08472000",
    "CountryID": 2,
    "StateID": 5288
  },
  {
    "id": 160434,
    "name": "Saltvik",
    "latitude": "60.28333000",
    "longitude": "20.05000000",
    "CountryID": 2,
    "StateID": 5288
  },
  {
    "id": 160435,
    "name": "Sund",
    "latitude": "60.25000000",
    "longitude": "20.11667000",
    "CountryID": 2,
    "StateID": 5288
  },
  {
    "id": 160430,
    "name": "Tjudö",
    "latitude": "60.33333000",
    "longitude": "19.95000000",
    "CountryID": 2,
    "StateID": 5288
  },
  {
    "id": 160426,
    "name": "Yomala",
    "latitude": "60.16689000",
    "longitude": "19.93341000",
    "CountryID": 2,
    "StateID": 5288
  },
  {
    "id": 160436,
    "name": "Ytterby",
    "latitude": "60.16667000",
    "longitude": "20.01667000",
    "CountryID": 2,
    "StateID": 5288
  },
  {
    "id": 160425,
    "name": "Mariehamn",
    "latitude": "60.09726000",
    "longitude": "19.93481000",
    "CountryID": 2,
    "StateID": 5287
  }
]