[
  {
    "id": 12,
    "name": "Abu Dhabi",
    "latitude": "24.41361000",
    "longitude": "54.43295000",
    "CountryID": 231,
    "StateID": 3396
  },
  {
    "id": 16,
    "name": "Al Ain City",
    "latitude": "24.19167000",
    "longitude": "55.76056000",
    "CountryID": 231,
    "StateID": 3396
  },
  {
    "id": 19,
    "name": "Al Dhafra",
    "latitude": "23.65745000",
    "longitude": "53.72225000",
    "CountryID": 231,
    "StateID": 3396
  },
  {
    "id": 26,
    "name": "Bani Yas City",
    "latitude": "24.30978000",
    "longitude": "54.62944000",
    "CountryID": 231,
    "StateID": 3396
  },
  {
    "id": 11,
    "name": "Ghayathi",
    "latitude": "23.90453420",
    "longitude": "52.58710260",
    "CountryID": 231,
    "StateID": 3396
  },
  {
    "id": 34,
    "name": "Khalifa City",
    "latitude": "24.42588000",
    "longitude": "54.60500000",
    "CountryID": 231,
    "StateID": 3396
  },
  {
    "id": 17,
    "name": "Liwa Oasis",
    "latitude": "22.86972550",
    "longitude": "53.24086080",
    "CountryID": 231,
    "StateID": 3396
  },
  {
    "id": 41,
    "name": "Mussafah",
    "latitude": "24.35893000",
    "longitude": "54.48267000",
    "CountryID": 231,
    "StateID": 3396
  },
  {
    "id": 42,
    "name": "Muzayri‘",
    "latitude": "23.14355000",
    "longitude": "53.78810000",
    "CountryID": 231,
    "StateID": 3396
  },
  {
    "id": 25,
    "name": "Ruwais",
    "latitude": "24.11028000",
    "longitude": "52.73056000",
    "CountryID": 231,
    "StateID": 3396
  },
  {
    "id": 49,
    "name": "Zayed City",
    "latitude": "23.65416000",
    "longitude": "53.70522000",
    "CountryID": 231,
    "StateID": 3396
  },
  {
    "id": 14,
    "name": "Ajman",
    "latitude": "25.40328000",
    "longitude": "55.52341000",
    "CountryID": 231,
    "StateID": 3395
  },
  {
    "id": 37,
    "name": "Manama",
    "latitude": "25.32568000",
    "longitude": "56.00259000",
    "CountryID": 231,
    "StateID": 3395
  },
  {
    "id": 38,
    "name": "Masfut",
    "latitude": "24.83982000",
    "longitude": "56.05158000",
    "CountryID": 231,
    "StateID": 3395
  },
  {
    "id": 32,
    "name": "Dubai",
    "latitude": "25.06570000",
    "longitude": "55.17128000",
    "CountryID": 231,
    "StateID": 3391
  },
  {
    "id": 28,
    "name": "Dibba Al Fujairah",
    "latitude": "25.58580000",
    "longitude": "56.24792000",
    "CountryID": 231,
    "StateID": 3393
  },
  {
    "id": 30,
    "name": "Dibba Al-Fujairah",
    "latitude": "25.59246000",
    "longitude": "56.26176000",
    "CountryID": 231,
    "StateID": 3393
  },
  {
    "id": 31,
    "name": "Dibba Al-Hisn",
    "latitude": "25.61955000",
    "longitude": "56.27291000",
    "CountryID": 231,
    "StateID": 3393
  },
  {
    "id": 20,
    "name": "Fujairah",
    "latitude": "25.11641000",
    "longitude": "56.34141000",
    "CountryID": 231,
    "StateID": 3393
  },
  {
    "id": 43,
    "name": "Ras Al Khaimah",
    "latitude": "25.46116000",
    "longitude": "56.04058000",
    "CountryID": 231,
    "StateID": 3394
  },
  {
    "id": 18,
    "name": "Al Batayih",
    "latitude": "25.22317000",
    "longitude": "55.74272000",
    "CountryID": 231,
    "StateID": 3390
  },
  {
    "id": 13,
    "name": "Al Dhaid",
    "latitude": "25.28812000",
    "longitude": "55.88157000",
    "CountryID": 231,
    "StateID": 3390
  },
  {
    "id": 22,
    "name": "Al Hamriyah",
    "latitude": "25.46121000",
    "longitude": "55.54813000",
    "CountryID": 231,
    "StateID": 3390
  },
  {
    "id": 23,
    "name": "Al Madam",
    "latitude": "24.95536000",
    "longitude": "55.76820000",
    "CountryID": 231,
    "StateID": 3390
  },
  {
    "id": 33,
    "name": "Kalba",
    "latitude": "24.99816000",
    "longitude": "56.27207000",
    "CountryID": 231,
    "StateID": 3390
  },
  {
    "id": 36,
    "name": "Khor Fakkan",
    "latitude": "25.33966000",
    "longitude": "56.30280000",
    "CountryID": 231,
    "StateID": 3390
  },
  {
    "id": 39,
    "name": "Milehah",
    "latitude": "25.10097000",
    "longitude": "55.91282000",
    "CountryID": 231,
    "StateID": 3390
  },
  {
    "id": 40,
    "name": "Murbaḩ",
    "latitude": "25.27623000",
    "longitude": "56.36256000",
    "CountryID": 231,
    "StateID": 3390
  },
  {
    "id": 46,
    "name": "Sharjah",
    "latitude": "25.33737000",
    "longitude": "55.41206000",
    "CountryID": 231,
    "StateID": 3390
  },
  {
    "id": 47,
    "name": "Umm AL Quwain",
    "latitude": "25.49326000",
    "longitude": "55.73520000",
    "CountryID": 231,
    "StateID": 3392
  }
]