[
  {
    "id": 1973,
    "name": "Arkhangai",
    "iso2": "073",
    "native": "Архангай",
    "latitude": "47.86264600",
    "longitude": "101.03162830",
    "type": "province",
    "timezone": "Asia/Choibalsan",
    "CountryID": 146
  },
  {
    "id": 1969,
    "name": "Bayan-Ölgii",
    "iso2": "071",
    "native": "Баян-Өлгий",
    "latitude": "48.54700830",
    "longitude": "89.85493580",
    "type": "province",
    "timezone": "Asia/Choibalsan",
    "CountryID": 146
  },
  {
    "id": 1976,
    "name": "Bayankhongor",
    "iso2": "069",
    "native": "Баянхонгор",
    "latitude": "45.23809370",
    "longitude": "99.51467990",
    "type": "province",
    "timezone": "Asia/Choibalsan",
    "CountryID": 146
  },
  {
    "id": 1961,
    "name": "Bulgan",
    "iso2": "067",
    "native": "Булган",
    "latitude": "48.95214380",
    "longitude": "103.39655910",
    "type": "province",
    "timezone": "Asia/Choibalsan",
    "CountryID": 146
  },
  {
    "id": 1962,
    "name": "Darkhan-Uul",
    "iso2": "037",
    "native": "Дархан-Уул",
    "latitude": "49.37672910",
    "longitude": "106.29013840",
    "type": "province",
    "timezone": "Asia/Choibalsan",
    "CountryID": 146
  },
  {
    "id": 1963,
    "name": "Dornod",
    "iso2": "061",
    "native": "Дорнод",
    "latitude": "47.67727810",
    "longitude": "115.21771550",
    "type": "province",
    "timezone": "Asia/Choibalsan",
    "CountryID": 146
  },
  {
    "id": 1981,
    "name": "Dornogovi",
    "iso2": "063",
    "native": "Дорноговь",
    "latitude": "44.41796370",
    "longitude": "109.77837530",
    "type": "province",
    "timezone": "Asia/Choibalsan",
    "CountryID": 146
  },
  {
    "id": 1970,
    "name": "Dundgovi",
    "iso2": "059",
    "native": "Дундговь",
    "latitude": "45.51867220",
    "longitude": "106.26115620",
    "type": "province",
    "timezone": "Asia/Choibalsan",
    "CountryID": 146
  },
  {
    "id": 1972,
    "name": "Govi-Altai",
    "iso2": "065",
    "native": "Говь-Алтай",
    "latitude": "45.34631390",
    "longitude": "95.93258060",
    "type": "province",
    "timezone": "Asia/Choibalsan",
    "CountryID": 146
  },
  {
    "id": 1978,
    "name": "Govisümber",
    "iso2": "064",
    "native": "Говьсүмбэр",
    "latitude": "46.46108270",
    "longitude": "108.51731010",
    "type": "province",
    "timezone": "Asia/Choibalsan",
    "CountryID": 146
  },
  {
    "id": 1974,
    "name": "Khentii",
    "iso2": "039",
    "native": "Хэнтий",
    "latitude": "47.88598100",
    "longitude": "110.42010430",
    "type": "province",
    "timezone": "Asia/Choibalsan",
    "CountryID": 146
  },
  {
    "id": 1964,
    "name": "Khovd",
    "iso2": "043",
    "native": "Ховд",
    "latitude": "46.89979770",
    "longitude": "92.29596510",
    "type": "province",
    "timezone": "Asia/Choibalsan",
    "CountryID": 146
  },
  {
    "id": 1975,
    "name": "Khövsgöl",
    "iso2": "041",
    "native": "Хөвсгөл",
    "latitude": "50.22061960",
    "longitude": "99.91704920",
    "type": "province",
    "timezone": "Asia/Choibalsan",
    "CountryID": 146
  },
  {
    "id": 1967,
    "name": "Ömnögovi",
    "iso2": "053",
    "native": "Өмнөговь",
    "latitude": "43.28236300",
    "longitude": "104.11338640",
    "type": "province",
    "timezone": "Asia/Choibalsan",
    "CountryID": 146
  },
  {
    "id": 1966,
    "name": "Orkhon",
    "iso2": "035",
    "native": "Орхон",
    "latitude": "49.02437440",
    "longitude": "104.29988630",
    "type": "province",
    "timezone": "Asia/Choibalsan",
    "CountryID": 146
  },
  {
    "id": 1965,
    "name": "Övörkhangai",
    "iso2": "055",
    "native": "Өвөрхангай",
    "latitude": "45.82970390",
    "longitude": "102.72377690",
    "type": "province",
    "timezone": "Asia/Choibalsan",
    "CountryID": 146
  },
  {
    "id": 1980,
    "name": "Selenge",
    "iso2": "049",
    "native": "Сэлэнгэ",
    "latitude": "49.39101360",
    "longitude": "107.06290340",
    "type": "province",
    "timezone": "Asia/Choibalsan",
    "CountryID": 146
  },
  {
    "id": 1977,
    "name": "Sükhbaatar",
    "iso2": "051",
    "native": "Сүхбаатар",
    "latitude": "46.20934170",
    "longitude": "113.50771960",
    "type": "province",
    "timezone": "Asia/Choibalsan",
    "CountryID": 146
  },
  {
    "id": 1968,
    "name": "Töv",
    "iso2": "047",
    "native": "Төв",
    "latitude": "47.46925380",
    "longitude": "106.55251610",
    "type": "province",
    "timezone": "Asia/Choibalsan",
    "CountryID": 146
  },
  {
    "id": 5453,
    "name": "Ulaanbaatar",
    "iso2": "001",
    "native": "Улаанбаатар",
    "latitude": "47.91846760",
    "longitude": "106.91770160",
    "type": "capital city",
    "timezone": "Asia/Choibalsan",
    "CountryID": 146
  },
  {
    "id": 1971,
    "name": "Uvs",
    "iso2": "046",
    "native": "Увс",
    "latitude": "49.63138870",
    "longitude": "92.95581860",
    "type": "province",
    "timezone": "Asia/Choibalsan",
    "CountryID": 146
  },
  {
    "id": 1979,
    "name": "Zavkhan",
    "iso2": "057",
    "native": "Завхан",
    "latitude": "48.31333550",
    "longitude": "96.28505060",
    "type": "province",
    "timezone": "Asia/Choibalsan",
    "CountryID": 146
  }
]