[
  {
    "id": 53,
    "name": "Ahafo",
    "iso2": "AF",
    "native": "Ahafo",
    "latitude": "6.90966450",
    "longitude": "-2.23301230",
    "type": "region",
    "timezone": "Africa/Accra",
    "CountryID": 83
  },
  {
    "id": 48,
    "name": "Ashanti",
    "iso2": "AH",
    "native": "Ashanti",
    "latitude": "6.80033190",
    "longitude": "-1.51881420",
    "type": "region",
    "timezone": "Africa/Accra",
    "CountryID": 83
  },
  {
    "id": 4959,
    "name": "Bono",
    "iso2": "BO",
    "native": "Bono",
    "latitude": "7.80352360",
    "longitude": "-1.08764920",
    "type": "region",
    "timezone": "Africa/Accra",
    "CountryID": 83
  },
  {
    "id": 4958,
    "name": "Bono East",
    "iso2": "BE",
    "native": "Bono East",
    "latitude": "8.22479420",
    "longitude": "-0.65447110",
    "type": "region",
    "timezone": "Africa/Accra",
    "CountryID": 83
  },
  {
    "id": 52,
    "name": "Central",
    "iso2": "CP",
    "native": "Central",
    "latitude": "5.72441480",
    "longitude": "-1.37617490",
    "type": "region",
    "timezone": "Africa/Accra",
    "CountryID": 83
  },
  {
    "id": 50,
    "name": "Eastern",
    "iso2": "EP",
    "native": "Eastern",
    "latitude": "6.44687700",
    "longitude": "-0.37709640",
    "type": "region",
    "timezone": "Africa/Accra",
    "CountryID": 83
  },
  {
    "id": 54,
    "name": "Greater Accra",
    "iso2": "AA",
    "native": "Greater Accra",
    "latitude": "5.81015320",
    "longitude": "0.09952420",
    "type": "region",
    "timezone": "Africa/Accra",
    "CountryID": 83
  },
  {
    "id": 4960,
    "name": "North East",
    "iso2": "NE",
    "native": "North East",
    "latitude": "10.52799330",
    "longitude": "-0.36986250",
    "type": "region",
    "timezone": "Africa/Accra",
    "CountryID": 83
  },
  {
    "id": 51,
    "name": "Northern",
    "iso2": "NP",
    "native": "Northern",
    "latitude": "9.66000050",
    "longitude": "-0.39437990",
    "type": "region",
    "timezone": "Africa/Accra",
    "CountryID": 83
  },
  {
    "id": 4961,
    "name": "Oti",
    "iso2": "OT",
    "native": "Completed",
    "latitude": "6.10640980",
    "longitude": "-0.24837860",
    "type": "region",
    "timezone": "Africa/Accra",
    "CountryID": 83
  },
  {
    "id": 4962,
    "name": "Savannah",
    "iso2": "SV",
    "native": "Savannah",
    "latitude": "9.14006540",
    "longitude": "-1.71112340",
    "type": "region",
    "timezone": "Africa/Accra",
    "CountryID": 83
  },
  {
    "id": 55,
    "name": "Upper East",
    "iso2": "UE",
    "native": "Upper East",
    "latitude": "10.72459070",
    "longitude": "-0.81965910",
    "type": "region",
    "timezone": "Africa/Accra",
    "CountryID": 83
  },
  {
    "id": 57,
    "name": "Upper West",
    "iso2": "UW",
    "native": "Upper West",
    "latitude": "10.36695250",
    "longitude": "-2.09214260",
    "type": "region",
    "timezone": "Africa/Accra",
    "CountryID": 83
  },
  {
    "id": 56,
    "name": "Volta",
    "iso2": "TV",
    "native": "Volta",
    "latitude": "6.53486240",
    "longitude": "0.45560550",
    "type": "region",
    "timezone": "Africa/Accra",
    "CountryID": 83
  },
  {
    "id": 49,
    "name": "Western",
    "iso2": "WP",
    "native": "Western",
    "latitude": "5.42612410",
    "longitude": "-2.12865740",
    "type": "region",
    "timezone": "Africa/Accra",
    "CountryID": 83
  },
  {
    "id": 4963,
    "name": "Western North",
    "iso2": "WN",
    "native": "Western North",
    "latitude": "6.20646650",
    "longitude": "-2.48550920",
    "type": "region",
    "timezone": "Africa/Accra",
    "CountryID": 83
  }
]