[
  {
    "id": 3456,
    "name": "Aguascalientes",
    "iso2": "AGU",
    "native": "Aguascalientes",
    "latitude": "21.88525620",
    "longitude": "-102.29156770",
    "type": "state",
    "timezone": "America/Mexico_City",
    "CountryID": 142
  },
  {
    "id": 3457,
    "name": "Baja California",
    "iso2": "BCN",
    "native": "Baja California",
    "latitude": "30.03389230",
    "longitude": "-115.14251070",
    "type": "state",
    "timezone": "America/Tijuana",
    "CountryID": 142
  },
  {
    "id": 3460,
    "name": "Baja California Sur",
    "iso2": "BCS",
    "native": "Baja California Sur",
    "latitude": "25.58180140",
    "longitude": "-111.57061640",
    "type": "state",
    "timezone": "America/Mazatlan",
    "CountryID": 142
  },
  {
    "id": 3475,
    "name": "Campeche",
    "iso2": "CAM",
    "native": "Campeche",
    "latitude": "19.83812150",
    "longitude": "-90.51982530",
    "type": "state",
    "timezone": "America/Merida",
    "CountryID": 142
  },
  {
    "id": 3451,
    "name": "Chiapas",
    "iso2": "CHP",
    "native": "Chiapas",
    "latitude": "16.50000010",
    "longitude": "-92.50000010",
    "type": "state",
    "timezone": "America/Mexico_City",
    "CountryID": 142
  },
  {
    "id": 3447,
    "name": "Chihuahua",
    "iso2": "CHH",
    "native": "Chihuahua",
    "latitude": "28.63299570",
    "longitude": "-106.06910040",
    "type": "state",
    "timezone": "America/Chihuahua",
    "CountryID": 142
  },
  {
    "id": 3473,
    "name": "Ciudad de México",
    "iso2": "CMX",
    "native": "Ciudad de México",
    "latitude": "19.43260770",
    "longitude": "-99.13320800",
    "type": "federal district",
    "timezone": "America/Mexico_City",
    "CountryID": 142
  },
  {
    "id": 3471,
    "name": "Coahuila de Zaragoza",
    "iso2": "COA",
    "native": "Coahuila de Zaragoza",
    "latitude": "27.33333310",
    "longitude": "-102.00000010",
    "type": "state",
    "timezone": "America/Mexico_City",
    "CountryID": 142
  },
  {
    "id": 3472,
    "name": "Colima",
    "iso2": "COL",
    "native": "Colima",
    "latitude": "19.24523420",
    "longitude": "-103.72408680",
    "type": "state",
    "timezone": "America/Mexico_City",
    "CountryID": 142
  },
  {
    "id": 3453,
    "name": "Durango",
    "iso2": "DUR",
    "native": "Durango",
    "latitude": "24.83333300",
    "longitude": "-104.83333300",
    "type": "state",
    "timezone": "America/Monterrey",
    "CountryID": 142
  },
  {
    "id": 3450,
    "name": "Estado de México",
    "iso2": "MEX",
    "native": "Estado de México",
    "latitude": "19.48394460",
    "longitude": "-99.68997160",
    "type": "state",
    "timezone": "America/Mexico_City",
    "CountryID": 142
  },
  {
    "id": 3469,
    "name": "Guanajuato",
    "iso2": "GUA",
    "native": "Guanajuato",
    "latitude": "21.01901450",
    "longitude": "-101.25735860",
    "type": "state",
    "timezone": "America/Mexico_City",
    "CountryID": 142
  },
  {
    "id": 3459,
    "name": "Guerrero",
    "iso2": "GRO",
    "native": "Guerrero",
    "latitude": "17.66666700",
    "longitude": "-100.00000000",
    "type": "state",
    "timezone": "America/Mexico_City",
    "CountryID": 142
  },
  {
    "id": 3470,
    "name": "Hidalgo",
    "iso2": "HID",
    "native": "Hidalgo",
    "latitude": "24.16855450",
    "longitude": "-99.38737290",
    "type": "state",
    "timezone": "America/Mexico_City",
    "CountryID": 142
  },
  {
    "id": 4857,
    "name": "Jalisco",
    "iso2": "JAL",
    "native": "Jalisco",
    "latitude": "20.33333310",
    "longitude": "-103.66666710",
    "type": "state",
    "timezone": "America/Mexico_City",
    "CountryID": 142
  },
  {
    "id": 3474,
    "name": "Michoacán de Ocampo",
    "iso2": "MIC",
    "native": "Michoacán de Ocampo",
    "latitude": "19.20709800",
    "longitude": "-101.87811300",
    "type": "state",
    "timezone": "America/Mexico_City",
    "CountryID": 142
  },
  {
    "id": 3465,
    "name": "Morelos",
    "iso2": "MOR",
    "native": "Morelos",
    "latitude": "18.75000000",
    "longitude": "-99.00000000",
    "type": "state",
    "timezone": "America/Mexico_City",
    "CountryID": 142
  },
  {
    "id": 3477,
    "name": "Nayarit",
    "iso2": "NAY",
    "native": "Nayarit",
    "latitude": "22.00000010",
    "longitude": "-105.00000010",
    "type": "state",
    "timezone": "America/Mazatlan",
    "CountryID": 142
  },
  {
    "id": 3452,
    "name": "Nuevo León",
    "iso2": "NLE",
    "native": "Nuevo León",
    "latitude": "26.23843630",
    "longitude": "-99.88730000",
    "type": "state",
    "timezone": "America/Monterrey",
    "CountryID": 142
  },
  {
    "id": 3448,
    "name": "Oaxaca",
    "iso2": "OAX",
    "native": "Oaxaca",
    "latitude": "17.00000000",
    "longitude": "-96.50000000",
    "type": "state",
    "timezone": "America/Mexico_City",
    "CountryID": 142
  },
  {
    "id": 3476,
    "name": "Puebla",
    "iso2": "PUE",
    "native": "Puebla",
    "latitude": "19.04143980",
    "longitude": "-98.20627270",
    "type": "state",
    "timezone": "America/Mexico_City",
    "CountryID": 142
  },
  {
    "id": 3455,
    "name": "Querétaro",
    "iso2": "QUE",
    "native": "Querétaro",
    "latitude": "20.58879320",
    "longitude": "-100.38988810",
    "type": "state",
    "timezone": "America/Mexico_City",
    "CountryID": 142
  },
  {
    "id": 3467,
    "name": "Quintana Roo",
    "iso2": "ROO",
    "native": "Quintana Roo",
    "latitude": "19.66666710",
    "longitude": "-88.50000010",
    "type": "state",
    "timezone": "America/Cancun",
    "CountryID": 142
  },
  {
    "id": 3461,
    "name": "San Luis Potosí",
    "iso2": "SLP",
    "native": "San Luis Potosí",
    "latitude": "22.15164720",
    "longitude": "-100.97639930",
    "type": "state",
    "timezone": "America/Mexico_City",
    "CountryID": 142
  },
  {
    "id": 3449,
    "name": "Sinaloa",
    "iso2": "SIN",
    "native": "Sinaloa",
    "latitude": "25.00000010",
    "longitude": "-107.50000010",
    "type": "state",
    "timezone": "America/Mazatlan",
    "CountryID": 142
  },
  {
    "id": 3468,
    "name": "Sonora",
    "iso2": "SON",
    "native": "Sonora",
    "latitude": "29.33333310",
    "longitude": "-110.66666710",
    "type": "state",
    "timezone": "America/Hermosillo",
    "CountryID": 142
  },
  {
    "id": 3454,
    "name": "Tabasco",
    "iso2": "TAB",
    "native": "Tabasco",
    "latitude": "17.99992880",
    "longitude": "-92.66816590",
    "type": "state",
    "timezone": "America/Mexico_City",
    "CountryID": 142
  },
  {
    "id": 3463,
    "name": "Tamaulipas",
    "iso2": "TAM",
    "native": "Tamaulipas",
    "latitude": "23.98915530",
    "longitude": "-98.70268250",
    "type": "state",
    "timezone": "America/Matamoros",
    "CountryID": 142
  },
  {
    "id": 3458,
    "name": "Tlaxcala",
    "iso2": "TLA",
    "native": "Tlaxcala",
    "latitude": "19.31815400",
    "longitude": "-98.23749540",
    "type": "state",
    "timezone": "America/Mexico_City",
    "CountryID": 142
  },
  {
    "id": 3464,
    "name": "Veracruz de Ignacio de la Llave",
    "iso2": "VER",
    "native": "Veracruz de Ignacio de la Llave",
    "latitude": "19.33333300",
    "longitude": "-96.66666700",
    "type": "state",
    "timezone": "America/Mexico_City",
    "CountryID": 142
  },
  {
    "id": 3466,
    "name": "Yucatán",
    "iso2": "YUC",
    "native": "Yucatán",
    "latitude": "20.68459570",
    "longitude": "-88.87556690",
    "type": "state",
    "timezone": "America/Merida",
    "CountryID": 142
  },
  {
    "id": 3462,
    "name": "Zacatecas",
    "iso2": "ZAC",
    "native": "Zacatecas",
    "latitude": "22.77538910",
    "longitude": "-102.57227060",
    "type": "state",
    "timezone": "America/Mexico_City",
    "CountryID": 142
  }
]