[
  {
    "id": 5367,
    "name": "Grand Turk",
    "iso2": "05",
    "native": "Grand Turk",
    "latitude": "21.46796400",
    "longitude": "-71.13872180",
    "type": "district",
    "timezone": "America/Grand_Turk",
    "CountryID": 227
  },
  {
    "id": 5365,
    "name": "Middle Caicos",
    "iso2": "03",
    "native": "Middle Caicos",
    "latitude": "21.79595500",
    "longitude": "-71.76025950",
    "type": "district",
    "timezone": "America/Grand_Turk",
    "CountryID": 227
  },
  {
    "id": 5364,
    "name": "North Caicos",
    "iso2": "02",
    "native": "North Caicos",
    "latitude": "21.89091190",
    "longitude": "-71.95057490",
    "type": "district",
    "timezone": "America/Grand_Turk",
    "CountryID": 227
  },
  {
    "id": 5363,
    "name": "Providenciales",
    "iso2": "01",
    "native": "Providenciales",
    "latitude": "21.80206140",
    "longitude": "-72.30044560",
    "type": "district",
    "timezone": "America/Grand_Turk",
    "CountryID": 227
  },
  {
    "id": 5368,
    "name": "Salt Cay",
    "iso2": "06",
    "native": "Salt Cay",
    "latitude": "21.32283950",
    "longitude": "-71.20779090",
    "type": "district",
    "timezone": "America/Grand_Turk",
    "CountryID": 227
  },
  {
    "id": 5366,
    "name": "South Caicos",
    "iso2": "04",
    "native": "South Caicos",
    "latitude": "21.51446540",
    "longitude": "-71.53793440",
    "type": "district",
    "timezone": "America/Grand_Turk",
    "CountryID": 227
  }
]