[
  {
    "id": 107049,
    "name": "Pangai",
    "latitude": "-19.81468000",
    "longitude": "-174.35423000",
    "CountryID": 222,
    "StateID": 3913
  },
  {
    "id": 107051,
    "name": "‘Ohonua",
    "latitude": "-21.33333000",
    "longitude": "-174.95000000",
    "CountryID": 222,
    "StateID": 3915
  },
  {
    "id": 107045,
    "name": "Hihifo",
    "latitude": "-15.95440000",
    "longitude": "-173.79616000",
    "CountryID": 222,
    "StateID": 3914
  },
  {
    "id": 107044,
    "name": "Haveluloto",
    "latitude": "-21.15216000",
    "longitude": "-175.21333000",
    "CountryID": 222,
    "StateID": 3912
  },
  {
    "id": 107046,
    "name": "Kolonga",
    "latitude": "-21.13333000",
    "longitude": "-175.06667000",
    "CountryID": 222,
    "StateID": 3912
  },
  {
    "id": 107048,
    "name": "Nuku‘alofa",
    "latitude": "-21.13938000",
    "longitude": "-175.20180000",
    "CountryID": 222,
    "StateID": 3912
  },
  {
    "id": 107050,
    "name": "Vaini",
    "latitude": "-21.19292000",
    "longitude": "-175.17678000",
    "CountryID": 222,
    "StateID": 3912
  },
  {
    "id": 107047,
    "name": "Neiafu",
    "latitude": "-18.65060000",
    "longitude": "-173.98404000",
    "CountryID": 222,
    "StateID": 3911
  }
]