[
  {
    "id": 89709,
    "name": "Ngchemiangel",
    "latitude": "7.44613000",
    "longitude": "134.47678000",
    "CountryID": 168,
    "StateID": 4540
  },
  {
    "id": 89712,
    "name": "Ngetkib",
    "latitude": "7.36451000",
    "longitude": "134.51484000",
    "CountryID": 168,
    "StateID": 4528
  },
  {
    "id": 89700,
    "name": "Angaur State",
    "latitude": "6.90601000",
    "longitude": "134.12997000",
    "CountryID": 168,
    "StateID": 4538
  },
  {
    "id": 89714,
    "name": "Tobi Village",
    "latitude": "3.00488000",
    "longitude": "131.12168000",
    "CountryID": 168,
    "StateID": 4529
  },
  {
    "id": 89702,
    "name": "Kayangel",
    "latitude": "8.08228000",
    "longitude": "134.71725000",
    "CountryID": 168,
    "StateID": 4539
  },
  {
    "id": 89704,
    "name": "Koror",
    "latitude": "7.33978000",
    "longitude": "134.47326000",
    "CountryID": 168,
    "StateID": 4532
  },
  {
    "id": 89706,
    "name": "Melekeok Village",
    "latitude": "7.49567000",
    "longitude": "134.63671000",
    "CountryID": 168,
    "StateID": 4530
  },
  {
    "id": 89715,
    "name": "Ulimang",
    "latitude": "7.62416000",
    "longitude": "134.64208000",
    "CountryID": 168,
    "StateID": 4537
  },
  {
    "id": 89707,
    "name": "Mengellang",
    "latitude": "7.69570000",
    "longitude": "134.63054000",
    "CountryID": 168,
    "StateID": 4533
  },
  {
    "id": 89708,
    "name": "Ngardmau",
    "latitude": "7.60986000",
    "longitude": "134.57440000",
    "CountryID": 168,
    "StateID": 4527
  },
  {
    "id": 89710,
    "name": "Ngchesar Hamlet",
    "latitude": "7.46932000",
    "longitude": "134.60991000",
    "CountryID": 168,
    "StateID": 4536
  },
  {
    "id": 89701,
    "name": "Imeong Hamlet",
    "latitude": "7.53134000",
    "longitude": "134.52713000",
    "CountryID": 168,
    "StateID": 4541
  },
  {
    "id": 89711,
    "name": "Ngerkeai",
    "latitude": "7.55456000",
    "longitude": "134.63612000",
    "CountryID": 168,
    "StateID": 4534
  },
  {
    "id": 89703,
    "name": "Kloulklubed",
    "latitude": "7.04192000",
    "longitude": "134.25561000",
    "CountryID": 168,
    "StateID": 4526
  },
  {
    "id": 89713,
    "name": "Sonsorol Village",
    "latitude": "5.32608000",
    "longitude": "132.21943000",
    "CountryID": 168,
    "StateID": 4535
  }
]