[
  {
    "id": 3601,
    "name": "Acklins",
    "iso2": "AK",
    "native": "Acklins",
    "latitude": "22.41450000",
    "longitude": "-74.06068310",
    "type": "district",
    "timezone": "America/Nassau",
    "CountryID": 17
  },
  {
    "id": 3593,
    "name": "Berry Islands",
    "iso2": "BY",
    "native": "Berry Islands",
    "latitude": "25.59050000",
    "longitude": "-77.72610060",
    "type": "district",
    "timezone": "America/Nassau",
    "CountryID": 17
  },
  {
    "id": 3629,
    "name": "Bimini",
    "iso2": "BI",
    "native": "Bimini",
    "latitude": "25.70325380",
    "longitude": "-79.27334490",
    "type": "district",
    "timezone": "America/Nassau",
    "CountryID": 17
  },
  {
    "id": 3605,
    "name": "Black Point",
    "iso2": "BP",
    "native": "Black Point",
    "latitude": "24.09625980",
    "longitude": "-76.40225910",
    "type": "district",
    "timezone": "America/Nassau",
    "CountryID": 17
  },
  {
    "id": 3611,
    "name": "Cat Island",
    "iso2": "CI",
    "native": "Cat Island",
    "latitude": "24.33850000",
    "longitude": "-75.61499320",
    "type": "district",
    "timezone": "America/Nassau",
    "CountryID": 17
  },
  {
    "id": 3603,
    "name": "Central Abaco",
    "iso2": "CO",
    "native": "Central Abaco",
    "latitude": "26.52551050",
    "longitude": "-77.28381180",
    "type": "district",
    "timezone": "America/Nassau",
    "CountryID": 17
  },
  {
    "id": 3631,
    "name": "Central Andros",
    "iso2": "CS",
    "native": "Central Andros",
    "latitude": "24.43437490",
    "longitude": "-77.79340770",
    "type": "district",
    "timezone": "America/Nassau",
    "CountryID": 17
  },
  {
    "id": 3596,
    "name": "Central Eleuthera",
    "iso2": "CE",
    "native": "Central Eleuthera",
    "latitude": "25.23900000",
    "longitude": "-76.32916210",
    "type": "district",
    "timezone": "America/Nassau",
    "CountryID": 17
  },
  {
    "id": 3621,
    "name": "Crooked Island",
    "iso2": "CK",
    "native": "Crooked Island",
    "latitude": "22.74869590",
    "longitude": "-74.23861630",
    "type": "district",
    "timezone": "America/Nassau",
    "CountryID": 17
  },
  {
    "id": 3614,
    "name": "East Grand Bahama",
    "iso2": "EG",
    "native": "East Grand Bahama",
    "latitude": "26.67722290",
    "longitude": "-78.01345210",
    "type": "district",
    "timezone": "America/Nassau",
    "CountryID": 17
  },
  {
    "id": 3612,
    "name": "Exuma",
    "iso2": "EX",
    "native": "Exuma",
    "latitude": "23.96850000",
    "longitude": "-76.17990490",
    "type": "district",
    "timezone": "America/Nassau",
    "CountryID": 17
  },
  {
    "id": 3626,
    "name": "Freeport",
    "iso2": "FP",
    "native": "Freeport",
    "latitude": "26.53568100",
    "longitude": "-78.69536230",
    "type": "district",
    "timezone": "America/Nassau",
    "CountryID": 17
  },
  {
    "id": 3632,
    "name": "Grand Cay",
    "iso2": "GC",
    "native": "Grand Cay",
    "latitude": "27.22871910",
    "longitude": "-78.33243660",
    "type": "district",
    "timezone": "America/Nassau",
    "CountryID": 17
  },
  {
    "id": 3613,
    "name": "Harbour Island",
    "iso2": "HI",
    "native": "Harbour Island",
    "latitude": "25.50011000",
    "longitude": "-76.63405110",
    "type": "district",
    "timezone": "America/Nassau",
    "CountryID": 17
  },
  {
    "id": 3624,
    "name": "Hope Town",
    "iso2": "HT",
    "native": "Hope Town",
    "latitude": "26.54071160",
    "longitude": "-76.95943790",
    "type": "district",
    "timezone": "America/Nassau",
    "CountryID": 17
  },
  {
    "id": 3609,
    "name": "Inagua",
    "iso2": "IN",
    "native": "IT IS GOING",
    "latitude": "21.23250000",
    "longitude": "-73.30962130",
    "type": "district",
    "timezone": "America/Nassau",
    "CountryID": 17
  },
  {
    "id": 3610,
    "name": "Long Island",
    "iso2": "LI",
    "native": "Long Island",
    "latitude": "23.30300000",
    "longitude": "-75.10587820",
    "type": "district",
    "timezone": "America/Nassau",
    "CountryID": 17
  },
  {
    "id": 3625,
    "name": "Mangrove Cay",
    "iso2": "MC",
    "native": "Mangrove Cay",
    "latitude": "24.21882050",
    "longitude": "-77.71761450",
    "type": "district",
    "timezone": "America/Nassau",
    "CountryID": 17
  },
  {
    "id": 3633,
    "name": "Mayaguana",
    "iso2": "MG",
    "native": "Mayaguana",
    "latitude": "22.36984260",
    "longitude": "-72.88768160",
    "type": "district",
    "timezone": "America/Nassau",
    "CountryID": 17
  },
  {
    "id": 5717,
    "name": "Moore's Island",
    "iso2": "MI",
    "native": "Moore's Island",
    "latitude": "25.86666700",
    "longitude": "-77.96666700",
    "type": "district",
    "timezone": "America/Nassau",
    "CountryID": 17
  },
  {
    "id": 4881,
    "name": "New Providence",
    "iso2": "NP",
    "native": "New Providence",
    "latitude": "25.19435880",
    "longitude": "-77.29532970",
    "type": "island",
    "timezone": "America/Nassau",
    "CountryID": 17
  },
  {
    "id": 3616,
    "name": "North Abaco",
    "iso2": "NO",
    "native": "North Abaco",
    "latitude": "26.93839430",
    "longitude": "-77.68382210",
    "type": "district",
    "timezone": "America/Nassau",
    "CountryID": 17
  },
  {
    "id": 3617,
    "name": "North Andros",
    "iso2": "NS",
    "native": "North Andros",
    "latitude": "24.88750000",
    "longitude": "-78.08116190",
    "type": "district",
    "timezone": "America/Nassau",
    "CountryID": 17
  },
  {
    "id": 3602,
    "name": "North Eleuthera",
    "iso2": "NE",
    "native": "North Eleuthera",
    "latitude": "25.37766940",
    "longitude": "-76.78426550",
    "type": "district",
    "timezone": "America/Nassau",
    "CountryID": 17
  },
  {
    "id": 3615,
    "name": "Ragged Island",
    "iso2": "RI",
    "native": "Ragged Island",
    "latitude": "22.47655940",
    "longitude": "-75.80209340",
    "type": "district",
    "timezone": "America/Nassau",
    "CountryID": 17
  },
  {
    "id": 3600,
    "name": "Rum Cay",
    "iso2": "RC",
    "native": "Rum Cay",
    "latitude": "23.82630650",
    "longitude": "-74.93268290",
    "type": "district",
    "timezone": "America/Nassau",
    "CountryID": 17
  },
  {
    "id": 3627,
    "name": "San Salvador Island",
    "iso2": "SS",
    "native": "San Salvador Island",
    "latitude": "24.03438160",
    "longitude": "-74.48513730",
    "type": "district",
    "timezone": "America/Nassau",
    "CountryID": 17
  },
  {
    "id": 3608,
    "name": "South Abaco",
    "iso2": "SO",
    "native": "South Abaco",
    "latitude": "26.00400000",
    "longitude": "-77.35670720",
    "type": "district",
    "timezone": "America/Nassau",
    "CountryID": 17
  },
  {
    "id": 3622,
    "name": "South Andros",
    "iso2": "SA",
    "native": "South Andros",
    "latitude": "23.89850000",
    "longitude": "-77.45654040",
    "type": "district",
    "timezone": "America/Nassau",
    "CountryID": 17
  },
  {
    "id": 3607,
    "name": "South Eleuthera",
    "iso2": "SE",
    "native": "South Eleuthera",
    "latitude": "24.73107940",
    "longitude": "-76.29269280",
    "type": "district",
    "timezone": "America/Nassau",
    "CountryID": 17
  },
  {
    "id": 3630,
    "name": "Spanish Wells",
    "iso2": "SW",
    "native": "Spanish Wells",
    "latitude": "25.54023360",
    "longitude": "-76.96062330",
    "type": "district",
    "timezone": "America/Nassau",
    "CountryID": 17
  },
  {
    "id": 3599,
    "name": "West Grand Bahama",
    "iso2": "WG",
    "native": "West Grand Bahama",
    "latitude": "26.74400000",
    "longitude": "-78.87886850",
    "type": "district",
    "timezone": "America/Nassau",
    "CountryID": 17
  }
]