[
  {
    "id": 105179,
    "name": "Amnat Charoen",
    "latitude": "15.85851000",
    "longitude": "104.62883000",
    "CountryID": 219,
    "StateID": 3523
  },
  {
    "id": 105286,
    "name": "Chanuman",
    "latitude": "16.12553000",
    "longitude": "104.92279000",
    "CountryID": 219,
    "StateID": 3523
  },
  {
    "id": 105351,
    "name": "Hua Taphan",
    "latitude": "15.67594000",
    "longitude": "104.52702000",
    "CountryID": 219,
    "StateID": 3523
  },
  {
    "id": 105495,
    "name": "Lue Amnat",
    "latitude": "15.70781000",
    "longitude": "104.71118000",
    "CountryID": 219,
    "StateID": 3523
  },
  {
    "id": 105531,
    "name": "Mueang Amnat Charoen",
    "latitude": "15.87864000",
    "longitude": "104.64284000",
    "CountryID": 219,
    "StateID": 3523
  },
  {
    "id": 105715,
    "name": "Pathum Ratchawongsa",
    "latitude": "15.89542000",
    "longitude": "104.89611000",
    "CountryID": 219,
    "StateID": 3523
  },
  {
    "id": 105722,
    "name": "Phana",
    "latitude": "15.66895000",
    "longitude": "104.85675000",
    "CountryID": 219,
    "StateID": 3523
  },
  {
    "id": 106208,
    "name": "Senangkhanikhom",
    "latitude": "16.05130000",
    "longitude": "104.68441000",
    "CountryID": 219,
    "StateID": 3523
  },
  {
    "id": 105274,
    "name": "Amphoe Chaiyo",
    "latitude": "14.67225000",
    "longitude": "100.46786000",
    "CountryID": 219,
    "StateID": 3519
  },
  {
    "id": 105750,
    "name": "Amphoe Pho Thong",
    "latitude": "14.67344000",
    "longitude": "100.34569000",
    "CountryID": 219,
    "StateID": 3519
  },
  {
    "id": 106380,
    "name": "Ang Thong",
    "latitude": "14.58839000",
    "longitude": "100.45283000",
    "CountryID": 219,
    "StateID": 3519
  },
  {
    "id": 106419,
    "name": "Ban Thai Tan",
    "latitude": "14.62161000",
    "longitude": "100.48739000",
    "CountryID": 219,
    "StateID": 3519
  },
  {
    "id": 106466,
    "name": "Chaiyo",
    "latitude": "14.67639000",
    "longitude": "100.46861000",
    "CountryID": 219,
    "StateID": 3519
  },
  {
    "id": 105532,
    "name": "Mueang Ang Thong",
    "latitude": "14.57815000",
    "longitude": "100.44393000",
    "CountryID": 219,
    "StateID": 3519
  },
  {
    "id": 105695,
    "name": "Pa Mok",
    "latitude": "14.48620000",
    "longitude": "100.45730000",
    "CountryID": 219,
    "StateID": 3519
  },
  {
    "id": 106638,
    "name": "Pho Thong",
    "latitude": "14.66731000",
    "longitude": "100.40878000",
    "CountryID": 219,
    "StateID": 3519
  },
  {
    "id": 106199,
    "name": "Sawaeng Ha",
    "latitude": "14.74635000",
    "longitude": "100.28963000",
    "CountryID": 219,
    "StateID": 3519
  },
  {
    "id": 106371,
    "name": "Wiset Chai Chan",
    "latitude": "14.54990000",
    "longitude": "100.31743000",
    "CountryID": 219,
    "StateID": 3519
  },
  {
    "id": 106754,
    "name": "Wiset Chaichan",
    "latitude": "14.59450000",
    "longitude": "100.33825000",
    "CountryID": 219,
    "StateID": 3519
  },
  {
    "id": 106422,
    "name": "Bang Bon",
    "latitude": "13.65920000",
    "longitude": "100.38801000",
    "CountryID": 219,
    "StateID": 3554
  },
  {
    "id": 106424,
    "name": "Bang Kapi",
    "latitude": "13.77258000",
    "longitude": "100.63847000",
    "CountryID": 219,
    "StateID": 3554
  },
  {
    "id": 106425,
    "name": "Bang Khae",
    "latitude": "13.71927000",
    "longitude": "100.39278000",
    "CountryID": 219,
    "StateID": 3554
  },
  {
    "id": 106426,
    "name": "Bang Khen",
    "latitude": "13.86901000",
    "longitude": "100.62769000",
    "CountryID": 219,
    "StateID": 3554
  },
  {
    "id": 106428,
    "name": "Bang Kho laen",
    "latitude": "13.70025000",
    "longitude": "100.50971000",
    "CountryID": 219,
    "StateID": 3554
  },
  {
    "id": 106429,
    "name": "Bang Khun thain",
    "latitude": "13.59482000",
    "longitude": "100.42694000",
    "CountryID": 219,
    "StateID": 3554
  },
  {
    "id": 106436,
    "name": "Bang Na",
    "latitude": "13.67252000",
    "longitude": "100.62089000",
    "CountryID": 219,
    "StateID": 3554
  },
  {
    "id": 106441,
    "name": "Bang Phlat",
    "latitude": "13.78668000",
    "longitude": "100.49152000",
    "CountryID": 219,
    "StateID": 3554
  },
  {
    "id": 106443,
    "name": "Bang Rak",
    "latitude": "13.73058000",
    "longitude": "100.52388000",
    "CountryID": 219,
    "StateID": 3554
  },
  {
    "id": 106446,
    "name": "Bang Sue",
    "latitude": "13.81921000",
    "longitude": "100.52790000",
    "CountryID": 219,
    "StateID": 3554
  },
  {
    "id": 106448,
    "name": "Bangkok",
    "latitude": "13.75398000",
    "longitude": "100.50144000",
    "CountryID": 219,
    "StateID": 3554
  },
  {
    "id": 106449,
    "name": "Bangkok Noi",
    "latitude": "13.76551000",
    "longitude": "100.46988000",
    "CountryID": 219,
    "StateID": 3554
  },
  {
    "id": 106450,
    "name": "Bangkok Yai",
    "latitude": "13.73748000",
    "longitude": "100.47428000",
    "CountryID": 219,
    "StateID": 3554
  },
  {
    "id": 106456,
    "name": "Bueng Kum",
    "latitude": "13.81023000",
    "longitude": "100.65140000",
    "CountryID": 219,
    "StateID": 3554
  },
  {
    "id": 106469,
    "name": "Chatu Chak",
    "latitude": "13.82888000",
    "longitude": "100.56374000",
    "CountryID": 219,
    "StateID": 3554
  },
  {
    "id": 106480,
    "name": "Chom Thong",
    "latitude": "13.68910000",
    "longitude": "100.46175000",
    "CountryID": 219,
    "StateID": 3554
  },
  {
    "id": 106489,
    "name": "Din Daeng",
    "latitude": "13.77728000",
    "longitude": "100.56235000",
    "CountryID": 219,
    "StateID": 3554
  },
  {
    "id": 106492,
    "name": "Don Mueang",
    "latitude": "13.92601000",
    "longitude": "100.59365000",
    "CountryID": 219,
    "StateID": 3554
  },
  {
    "id": 106494,
    "name": "Dusit",
    "latitude": "13.78235000",
    "longitude": "100.51677000",
    "CountryID": 219,
    "StateID": 3554
  },
  {
    "id": 106500,
    "name": "Huai Khwang",
    "latitude": "13.77060000",
    "longitude": "100.58119000",
    "CountryID": 219,
    "StateID": 3554
  },
  {
    "id": 106518,
    "name": "Khan Na Yao",
    "latitude": "13.82380000",
    "longitude": "100.67649000",
    "CountryID": 219,
    "StateID": 3554
  },
  {
    "id": 106525,
    "name": "Khlong Sam Wa",
    "latitude": "13.87633000",
    "longitude": "100.73805000",
    "CountryID": 219,
    "StateID": 3554
  },
  {
    "id": 106526,
    "name": "Khlong San",
    "latitude": "13.72602000",
    "longitude": "100.50071000",
    "CountryID": 219,
    "StateID": 3554
  },
  {
    "id": 106527,
    "name": "Khlong Toei",
    "latitude": "13.71806000",
    "longitude": "100.57065000",
    "CountryID": 219,
    "StateID": 3554
  },
  {
    "id": 106548,
    "name": "Lak Si",
    "latitude": "13.88210000",
    "longitude": "100.56889000",
    "CountryID": 219,
    "StateID": 3554
  },
  {
    "id": 106554,
    "name": "Lat Krabang",
    "latitude": "13.74500000",
    "longitude": "100.79224000",
    "CountryID": 219,
    "StateID": 3554
  },
  {
    "id": 106555,
    "name": "Lat Phrao",
    "latitude": "13.82779000",
    "longitude": "100.60672000",
    "CountryID": 219,
    "StateID": 3554
  },
  {
    "id": 106569,
    "name": "Min Buri",
    "latitude": "13.81254000",
    "longitude": "100.75334000",
    "CountryID": 219,
    "StateID": 3554
  },
  {
    "id": 106597,
    "name": "Nong Chok",
    "latitude": "13.85280000",
    "longitude": "100.85788000",
    "CountryID": 219,
    "StateID": 3554
  },
  {
    "id": 106599,
    "name": "Nong Khaem",
    "latitude": "13.69979000",
    "longitude": "100.35364000",
    "CountryID": 219,
    "StateID": 3554
  },
  {
    "id": 106613,
    "name": "Parthum Wan",
    "latitude": "13.74265000",
    "longitude": "100.53398000",
    "CountryID": 219,
    "StateID": 3554
  },
  {
    "id": 106625,
    "name": "Phasi Charoen",
    "latitude": "13.72597000",
    "longitude": "100.44103000",
    "CountryID": 219,
    "StateID": 3554
  },
  {
    "id": 106627,
    "name": "Phaya Thai",
    "latitude": "13.78442000",
    "longitude": "100.54306000",
    "CountryID": 219,
    "StateID": 3554
  },
  {
    "id": 106642,
    "name": "Phra Khanong",
    "latitude": "13.69705000",
    "longitude": "100.61234000",
    "CountryID": 219,
    "StateID": 3554
  },
  {
    "id": 106643,
    "name": "Phra Nakhon",
    "latitude": "13.75831000",
    "longitude": "100.49613000",
    "CountryID": 219,
    "StateID": 3554
  },
  {
    "id": 106651,
    "name": "Pom Prap Sattru Phai",
    "latitude": "13.75480000",
    "longitude": "100.50995000",
    "CountryID": 219,
    "StateID": 3554
  },
  {
    "id": 106654,
    "name": "Pra Wet",
    "latitude": "13.71735000",
    "longitude": "100.69452000",
    "CountryID": 219,
    "StateID": 3554
  },
  {
    "id": 106663,
    "name": "Rat Burana",
    "latitude": "13.67633000",
    "longitude": "100.49881000",
    "CountryID": 219,
    "StateID": 3554
  },
  {
    "id": 106665,
    "name": "Ratchathewi",
    "latitude": "13.76029000",
    "longitude": "100.53724000",
    "CountryID": 219,
    "StateID": 3554
  },
  {
    "id": 106674,
    "name": "Sai Mai",
    "latitude": "13.90727000",
    "longitude": "100.65181000",
    "CountryID": 219,
    "StateID": 3554
  },
  {
    "id": 106679,
    "name": "Samphanthawong",
    "latitude": "13.74233000",
    "longitude": "100.50765000",
    "CountryID": 219,
    "StateID": 3554
  },
  {
    "id": 106687,
    "name": "Saphan Sung",
    "latitude": "13.76531000",
    "longitude": "100.69001000",
    "CountryID": 219,
    "StateID": 3554
  },
  {
    "id": 106689,
    "name": "Sathon",
    "latitude": "13.71745000",
    "longitude": "100.52999000",
    "CountryID": 219,
    "StateID": 3554
  },
  {
    "id": 106706,
    "name": "Suanluang",
    "latitude": "13.72989000",
    "longitude": "100.62677000",
    "CountryID": 219,
    "StateID": 3554
  },
  {
    "id": 106716,
    "name": "Taling Chan",
    "latitude": "13.77271000",
    "longitude": "100.43289000",
    "CountryID": 219,
    "StateID": 3554
  },
  {
    "id": 106730,
    "name": "Thawi Watthana",
    "latitude": "13.77637000",
    "longitude": "100.36620000",
    "CountryID": 219,
    "StateID": 3554
  },
  {
    "id": 106732,
    "name": "Thon buri",
    "latitude": "13.71874000",
    "longitude": "100.48367000",
    "CountryID": 219,
    "StateID": 3554
  },
  {
    "id": 106734,
    "name": "Thung khru",
    "latitude": "13.63387000",
    "longitude": "100.49641000",
    "CountryID": 219,
    "StateID": 3554
  },
  {
    "id": 106741,
    "name": "Vadhana",
    "latitude": "13.73501000",
    "longitude": "100.58280000",
    "CountryID": 219,
    "StateID": 3554
  },
  {
    "id": 106748,
    "name": "Wang Thong Lang",
    "latitude": "13.78188000",
    "longitude": "100.60804000",
    "CountryID": 219,
    "StateID": 3554
  },
  {
    "id": 106756,
    "name": "Yan na wa",
    "latitude": "13.69177000",
    "longitude": "100.53950000",
    "CountryID": 219,
    "StateID": 3554
  },
  {
    "id": 106205,
    "name": "Amphoe Seka",
    "latitude": "17.98734000",
    "longitude": "103.89616000",
    "CountryID": 219,
    "StateID": 3533
  },
  {
    "id": 106455,
    "name": "Bueng Kan",
    "latitude": "18.36303000",
    "longitude": "103.65194000",
    "CountryID": 219,
    "StateID": 3533
  },
  {
    "id": 105260,
    "name": "Bueng Khong Long",
    "latitude": "18.00899000",
    "longitude": "104.07302000",
    "CountryID": 219,
    "StateID": 3533
  },
  {
    "id": 105264,
    "name": "Bung Khla",
    "latitude": "18.24726000",
    "longitude": "103.99427000",
    "CountryID": 219,
    "StateID": 3533
  },
  {
    "id": 105533,
    "name": "Mueang Bueng Kan",
    "latitude": "18.29950000",
    "longitude": "103.64016000",
    "CountryID": 219,
    "StateID": 3533
  },
  {
    "id": 105702,
    "name": "Pak Khat",
    "latitude": "18.27738000",
    "longitude": "103.34140000",
    "CountryID": 219,
    "StateID": 3533
  },
  {
    "id": 105752,
    "name": "Phon Charoen",
    "latitude": "18.07967000",
    "longitude": "103.65453000",
    "CountryID": 219,
    "StateID": 3533
  },
  {
    "id": 106696,
    "name": "Seka",
    "latitude": "17.92851000",
    "longitude": "103.95519000",
    "CountryID": 219,
    "StateID": 3533
  },
  {
    "id": 106230,
    "name": "Si Wilai",
    "latitude": "18.15528000",
    "longitude": "103.77975000",
    "CountryID": 219,
    "StateID": 3533
  },
  {
    "id": 106239,
    "name": "So Phisai",
    "latitude": "18.14176000",
    "longitude": "103.44923000",
    "CountryID": 219,
    "StateID": 3533
  },
  {
    "id": 105641,
    "name": "Amphoe Nang Rong",
    "latitude": "14.63333000",
    "longitude": "102.76667000",
    "CountryID": 219,
    "StateID": 3534
  },
  {
    "id": 105669,
    "name": "Amphoe Nong Ki",
    "latitude": "14.72696000",
    "longitude": "102.55798000",
    "CountryID": 219,
    "StateID": 3534
  },
  {
    "id": 105795,
    "name": "Amphoe Prakhon Chai",
    "latitude": "14.61041000",
    "longitude": "103.06054000",
    "CountryID": 219,
    "StateID": 3534
  },
  {
    "id": 106198,
    "name": "Amphoe Satuek",
    "latitude": "15.22699000",
    "longitude": "103.33006000",
    "CountryID": 219,
    "StateID": 3534
  },
  {
    "id": 105188,
    "name": "Ban Dan",
    "latitude": "15.12363000",
    "longitude": "103.18937000",
    "CountryID": 219,
    "StateID": 3534
  },
  {
    "id": 105197,
    "name": "Ban Kruat",
    "latitude": "14.39205000",
    "longitude": "103.11494000",
    "CountryID": 219,
    "StateID": 3534
  },
  {
    "id": 105202,
    "name": "Ban Mai Chaiyaphot",
    "latitude": "15.57857000",
    "longitude": "102.84394000",
    "CountryID": 219,
    "StateID": 3534
  },
  {
    "id": 106458,
    "name": "Buri Ram",
    "latitude": "14.99433000",
    "longitude": "103.10392000",
    "CountryID": 219,
    "StateID": 3534
  },
  {
    "id": 105279,
    "name": "Chaloem Phra Kiat",
    "latitude": "14.55725000",
    "longitude": "102.89878000",
    "CountryID": 219,
    "StateID": 3534
  },
  {
    "id": 105281,
    "name": "Chamni",
    "latitude": "14.78636000",
    "longitude": "102.85386000",
    "CountryID": 219,
    "StateID": 3534
  },
  {
    "id": 105356,
    "name": "Huai Rat",
    "latitude": "15.00896000",
    "longitude": "103.23499000",
    "CountryID": 219,
    "StateID": 3534
  },
  {
    "id": 105381,
    "name": "Khaen Dong",
    "latitude": "15.30620000",
    "longitude": "103.13286000",
    "CountryID": 219,
    "StateID": 3534
  },
  {
    "id": 105425,
    "name": "Khu Mueang",
    "latitude": "15.26844000",
    "longitude": "103.02717000",
    "CountryID": 219,
    "StateID": 3534
  },
  {
    "id": 105454,
    "name": "Krasang",
    "latitude": "14.94167000",
    "longitude": "103.31898000",
    "CountryID": 219,
    "StateID": 3534
  },
  {
    "id": 105472,
    "name": "Lahan Sai",
    "latitude": "14.32194000",
    "longitude": "102.87994000",
    "CountryID": 219,
    "StateID": 3534
  },
  {
    "id": 105474,
    "name": "Lam Plai Mat",
    "latitude": "15.01688000",
    "longitude": "102.87479000",
    "CountryID": 219,
    "StateID": 3534
  },
  {
    "id": 105534,
    "name": "Mueang Buriram",
    "latitude": "14.94078000",
    "longitude": "103.06244000",
    "CountryID": 219,
    "StateID": 3534
  },
  {
    "id": 105621,
    "name": "Na Pho",
    "latitude": "15.69565000",
    "longitude": "102.93857000",
    "CountryID": 219,
    "StateID": 3534
  },
  {
    "id": 106589,
    "name": "Nang Rong",
    "latitude": "14.63770000",
    "longitude": "102.79138000",
    "CountryID": 219,
    "StateID": 3534
  },
  {
    "id": 105649,
    "name": "Non Din Daeng",
    "latitude": "14.22010000",
    "longitude": "102.68233000",
    "CountryID": 219,
    "StateID": 3534
  },
  {
    "id": 105656,
    "name": "Non Suwan",
    "latitude": "14.55511000",
    "longitude": "102.58339000",
    "CountryID": 219,
    "StateID": 3534
  },
  {
    "id": 105666,
    "name": "Nong Hong",
    "latitude": "14.86149000",
    "longitude": "102.67080000",
    "CountryID": 219,
    "StateID": 3534
  },
  {
    "id": 106601,
    "name": "Nong Ki",
    "latitude": "14.68679000",
    "longitude": "102.53800000",
    "CountryID": 219,
    "StateID": 3534
  },
  {
    "id": 105694,
    "name": "Pa Kham",
    "latitude": "14.40000000",
    "longitude": "102.66667000",
    "CountryID": 219,
    "StateID": 3534
  },
  {
    "id": 105743,
    "name": "Phlapphla Chai",
    "latitude": "14.73299000",
    "longitude": "103.17015000",
    "CountryID": 219,
    "StateID": 3534
  },
  {
    "id": 105785,
    "name": "Phutthaisong",
    "latitude": "15.53249000",
    "longitude": "102.98701000",
    "CountryID": 219,
    "StateID": 3534
  },
  {
    "id": 106657,
    "name": "Prakhon Chai",
    "latitude": "14.60592000",
    "longitude": "103.12081000",
    "CountryID": 219,
    "StateID": 3534
  },
  {
    "id": 106691,
    "name": "Satuek",
    "latitude": "15.29703000",
    "longitude": "103.29192000",
    "CountryID": 219,
    "StateID": 3534
  },
  {
    "id": 105226,
    "name": "Amphoe Bang Khla",
    "latitude": "13.74186000",
    "longitude": "101.20754000",
    "CountryID": 219,
    "StateID": 3552
  },
  {
    "id": 105233,
    "name": "Amphoe Bang Nam Priao",
    "latitude": "13.88034000",
    "longitude": "101.03232000",
    "CountryID": 219,
    "StateID": 3552
  },
  {
    "id": 105236,
    "name": "Amphoe Bang Pakong",
    "latitude": "13.53241000",
    "longitude": "100.96045000",
    "CountryID": 219,
    "StateID": 3552
  },
  {
    "id": 105408,
    "name": "Amphoe Khlong Khuean",
    "latitude": "13.77961000",
    "longitude": "101.15633000",
    "CountryID": 219,
    "StateID": 3552
  },
  {
    "id": 105729,
    "name": "Amphoe Phanom Sarakham",
    "latitude": "13.73806000",
    "longitude": "101.41202000",
    "CountryID": 219,
    "StateID": 3552
  },
  {
    "id": 105212,
    "name": "Ban Pho",
    "latitude": "13.61000000",
    "longitude": "101.07838000",
    "CountryID": 219,
    "StateID": 3552
  },
  {
    "id": 106427,
    "name": "Bang Khla",
    "latitude": "13.72144000",
    "longitude": "101.20814000",
    "CountryID": 219,
    "StateID": 3552
  },
  {
    "id": 106437,
    "name": "Bang Nam Priao",
    "latitude": "13.84739000",
    "longitude": "101.05306000",
    "CountryID": 219,
    "StateID": 3552
  },
  {
    "id": 106439,
    "name": "Bang Pakong",
    "latitude": "13.54297000",
    "longitude": "100.99333000",
    "CountryID": 219,
    "StateID": 3552
  },
  {
    "id": 106460,
    "name": "Chachoengsao",
    "latitude": "13.68820000",
    "longitude": "101.07156000",
    "CountryID": 219,
    "StateID": 3552
  },
  {
    "id": 106523,
    "name": "Khlong Khuean",
    "latitude": "13.79131000",
    "longitude": "101.16353000",
    "CountryID": 219,
    "StateID": 3552
  },
  {
    "id": 105535,
    "name": "Mueang Chachoengsao",
    "latitude": "13.71758000",
    "longitude": "101.02152000",
    "CountryID": 219,
    "StateID": 3552
  },
  {
    "id": 106623,
    "name": "Phanom Sarakham",
    "latitude": "13.74872000",
    "longitude": "101.34888000",
    "CountryID": 219,
    "StateID": 3552
  },
  {
    "id": 105788,
    "name": "Plaeng Yao",
    "latitude": "13.56381000",
    "longitude": "101.33972000",
    "CountryID": 219,
    "StateID": 3552
  },
  {
    "id": 105806,
    "name": "Ratchasan",
    "latitude": "13.78660000",
    "longitude": "101.28136000",
    "CountryID": 219,
    "StateID": 3552
  },
  {
    "id": 106185,
    "name": "Sanam Chai Khet",
    "latitude": "13.62612000",
    "longitude": "101.65475000",
    "CountryID": 219,
    "StateID": 3552
  },
  {
    "id": 106286,
    "name": "Tha Takiap",
    "latitude": "13.39510000",
    "longitude": "101.73457000",
    "CountryID": 219,
    "StateID": 3552
  },
  {
    "id": 106463,
    "name": "Chai Nat",
    "latitude": "15.18636000",
    "longitude": "100.12353000",
    "CountryID": 219,
    "StateID": 3522
  },
  {
    "id": 105345,
    "name": "Hankha",
    "latitude": "15.05048000",
    "longitude": "99.96090000",
    "CountryID": 219,
    "StateID": 3522
  },
  {
    "id": 105526,
    "name": "Manorom",
    "latitude": "15.31894000",
    "longitude": "100.15677000",
    "CountryID": 219,
    "StateID": 3522
  },
  {
    "id": 105536,
    "name": "Mueang Chainat",
    "latitude": "15.19104000",
    "longitude": "100.13540000",
    "CountryID": 219,
    "StateID": 3522
  },
  {
    "id": 105646,
    "name": "Noen Kham",
    "latitude": "14.98254000",
    "longitude": "99.84590000",
    "CountryID": 219,
    "StateID": 3522
  },
  {
    "id": 105671,
    "name": "Nong Mamong",
    "latitude": "15.23372000",
    "longitude": "99.81087000",
    "CountryID": 219,
    "StateID": 3522
  },
  {
    "id": 106190,
    "name": "Sankhaburi",
    "latitude": "15.02105000",
    "longitude": "100.17038000",
    "CountryID": 219,
    "StateID": 3522
  },
  {
    "id": 106194,
    "name": "Sapphaya",
    "latitude": "15.14873000",
    "longitude": "100.25506000",
    "CountryID": 219,
    "StateID": 3522
  },
  {
    "id": 106357,
    "name": "Wat Sing",
    "latitude": "15.21574000",
    "longitude": "99.96680000",
    "CountryID": 219,
    "StateID": 3522
  },
  {
    "id": 148554,
    "name": "Bamnet Narong",
    "latitude": "15.50189000",
    "longitude": "101.68982000",
    "CountryID": 219,
    "StateID": 4954
  },
  {
    "id": 148555,
    "name": "Chaiyaphum",
    "latitude": "15.81047000",
    "longitude": "102.02881000",
    "CountryID": 219,
    "StateID": 4954
  },
  {
    "id": 148556,
    "name": "Kaeng Khro",
    "latitude": "16.10861111",
    "longitude": "102.25805556",
    "CountryID": 219,
    "StateID": 4954
  },
  {
    "id": 148557,
    "name": "Kaset Sombun",
    "latitude": "16.28053000",
    "longitude": "101.95422000",
    "CountryID": 219,
    "StateID": 4954
  },
  {
    "id": 148558,
    "name": "Nakhon Nayok",
    "latitude": "14.20305600",
    "longitude": "101.21500000",
    "CountryID": 219,
    "StateID": 4954
  },
  {
    "id": 148559,
    "name": "Phu Khiao",
    "latitude": "16.37650000",
    "longitude": "102.12853000",
    "CountryID": 219,
    "StateID": 4954
  },
  {
    "id": 105413,
    "name": "Amphoe Khlung",
    "latitude": "12.57246000",
    "longitude": "102.30783000",
    "CountryID": 219,
    "StateID": 3486
  },
  {
    "id": 105471,
    "name": "Amphoe Laem Sing",
    "latitude": "12.45689000",
    "longitude": "102.14262000",
    "CountryID": 219,
    "StateID": 3486
  },
  {
    "id": 105792,
    "name": "Amphoe Pong Nam Ron",
    "latitude": "12.93467000",
    "longitude": "102.37189000",
    "CountryID": 219,
    "StateID": 3486
  },
  {
    "id": 106277,
    "name": "Amphoe Tha Mai",
    "latitude": "12.73848000",
    "longitude": "101.97696000",
    "CountryID": 219,
    "StateID": 3486
  },
  {
    "id": 106467,
    "name": "Chanthaburi",
    "latitude": "12.60961000",
    "longitude": "102.10447000",
    "CountryID": 219,
    "StateID": 3486
  },
  {
    "id": 105364,
    "name": "Kaeng Hang Maeo",
    "latitude": "13.09690000",
    "longitude": "101.88543000",
    "CountryID": 219,
    "StateID": 3486
  },
  {
    "id": 105394,
    "name": "Khao Khitchakut",
    "latitude": "12.93726000",
    "longitude": "102.09762000",
    "CountryID": 219,
    "StateID": 3486
  },
  {
    "id": 106529,
    "name": "Khlung",
    "latitude": "12.45467000",
    "longitude": "102.22142000",
    "CountryID": 219,
    "StateID": 3486
  },
  {
    "id": 106547,
    "name": "Laem Sing",
    "latitude": "12.48164000",
    "longitude": "102.07375000",
    "CountryID": 219,
    "StateID": 3486
  },
  {
    "id": 105523,
    "name": "Makham",
    "latitude": "12.73333000",
    "longitude": "102.21667000",
    "CountryID": 219,
    "StateID": 3486
  },
  {
    "id": 105538,
    "name": "Mueang Chanthaburi",
    "latitude": "12.59542000",
    "longitude": "102.12263000",
    "CountryID": 219,
    "StateID": 3486
  },
  {
    "id": 105627,
    "name": "Na Yai Am",
    "latitude": "12.73833000",
    "longitude": "101.87502000",
    "CountryID": 219,
    "StateID": 3486
  },
  {
    "id": 106653,
    "name": "Pong Nam Ron",
    "latitude": "12.90575000",
    "longitude": "102.26225000",
    "CountryID": 219,
    "StateID": 3486
  },
  {
    "id": 106242,
    "name": "Soi Dao",
    "latitude": "13.17034000",
    "longitude": "102.22796000",
    "CountryID": 219,
    "StateID": 3486
  },
  {
    "id": 106721,
    "name": "Tha Mai",
    "latitude": "12.62137000",
    "longitude": "102.00481000",
    "CountryID": 219,
    "StateID": 3486
  },
  {
    "id": 105271,
    "name": "Amphoe Chai Prakan",
    "latitude": "19.67400000",
    "longitude": "99.17478000",
    "CountryID": 219,
    "StateID": 3491
  },
  {
    "id": 105305,
    "name": "Amphoe Chom Thong",
    "latitude": "18.39242000",
    "longitude": "98.59761000",
    "CountryID": 219,
    "StateID": 3491
  },
  {
    "id": 105340,
    "name": "Amphoe Fang",
    "latitude": "19.87550000",
    "longitude": "99.16345000",
    "CountryID": 219,
    "StateID": 3491
  },
  {
    "id": 105344,
    "name": "Amphoe Hang Dong",
    "latitude": "18.73869000",
    "longitude": "98.88439000",
    "CountryID": 219,
    "StateID": 3491
  },
  {
    "id": 106182,
    "name": "Amphoe San Kamphaeng",
    "latitude": "18.73497000",
    "longitude": "99.18609000",
    "CountryID": 219,
    "StateID": 3491
  },
  {
    "id": 106183,
    "name": "Amphoe San Pa Tong",
    "latitude": "18.60567000",
    "longitude": "98.88531000",
    "CountryID": 219,
    "StateID": 3491
  },
  {
    "id": 106464,
    "name": "Chai Prakan",
    "latitude": "19.73136000",
    "longitude": "99.13997000",
    "CountryID": 219,
    "StateID": 3491
  },
  {
    "id": 105292,
    "name": "Chiang Dao",
    "latitude": "19.51279000",
    "longitude": "98.94180000",
    "CountryID": 219,
    "StateID": 3491
  },
  {
    "id": 106474,
    "name": "Chiang Mai",
    "latitude": "18.79038000",
    "longitude": "98.98468000",
    "CountryID": 219,
    "StateID": 3491
  },
  {
    "id": 106479,
    "name": "Chom Thong",
    "latitude": "18.41742000",
    "longitude": "98.67428000",
    "CountryID": 219,
    "StateID": 3491
  },
  {
    "id": 105324,
    "name": "Doi Lo",
    "latitude": "18.53330000",
    "longitude": "98.76843000",
    "CountryID": 219,
    "StateID": 3491
  },
  {
    "id": 105326,
    "name": "Doi Saket",
    "latitude": "18.92372000",
    "longitude": "99.21272000",
    "CountryID": 219,
    "StateID": 3491
  },
  {
    "id": 105327,
    "name": "Doi Tao",
    "latitude": "17.89703000",
    "longitude": "98.66292000",
    "CountryID": 219,
    "StateID": 3491
  },
  {
    "id": 106495,
    "name": "Fang",
    "latitude": "19.91689000",
    "longitude": "99.21450000",
    "CountryID": 219,
    "StateID": 3491
  },
  {
    "id": 105342,
    "name": "Galyani Vadhana",
    "latitude": "18.94439000",
    "longitude": "98.30329000",
    "CountryID": 219,
    "StateID": 3491
  },
  {
    "id": 106496,
    "name": "Hang Dong",
    "latitude": "18.68703000",
    "longitude": "98.91939000",
    "CountryID": 219,
    "StateID": 3491
  },
  {
    "id": 105348,
    "name": "Hot",
    "latitude": "18.11581000",
    "longitude": "98.46377000",
    "CountryID": 219,
    "StateID": 3491
  },
  {
    "id": 105496,
    "name": "Mae Ai",
    "latitude": "19.99136000",
    "longitude": "99.33976000",
    "CountryID": 219,
    "StateID": 3491
  },
  {
    "id": 105497,
    "name": "Mae Chaem",
    "latitude": "18.66694000",
    "longitude": "98.32450000",
    "CountryID": 219,
    "StateID": 3491
  },
  {
    "id": 105506,
    "name": "Mae On",
    "latitude": "18.73496000",
    "longitude": "99.30378000",
    "CountryID": 219,
    "StateID": 3491
  },
  {
    "id": 105510,
    "name": "Mae Rim",
    "latitude": "18.94139000",
    "longitude": "98.88667000",
    "CountryID": 219,
    "StateID": 3491
  },
  {
    "id": 105515,
    "name": "Mae Taeng",
    "latitude": "19.16667000",
    "longitude": "98.83333000",
    "CountryID": 219,
    "StateID": 3491
  },
  {
    "id": 105518,
    "name": "Mae Wang",
    "latitude": "18.67457000",
    "longitude": "98.68714000",
    "CountryID": 219,
    "StateID": 3491
  },
  {
    "id": 105539,
    "name": "Mueang Chiang Mai",
    "latitude": "18.79008000",
    "longitude": "98.96869000",
    "CountryID": 219,
    "StateID": 3491
  },
  {
    "id": 105690,
    "name": "Om Koi",
    "latitude": "17.69842000",
    "longitude": "98.35433000",
    "CountryID": 219,
    "StateID": 3491
  },
  {
    "id": 106608,
    "name": "Pai",
    "latitude": "19.36168000",
    "longitude": "98.43973000",
    "CountryID": 219,
    "StateID": 3491
  },
  {
    "id": 105769,
    "name": "Phrao",
    "latitude": "19.28460000",
    "longitude": "99.22277000",
    "CountryID": 219,
    "StateID": 3491
  },
  {
    "id": 106179,
    "name": "Samoeng",
    "latitude": "18.90027000",
    "longitude": "98.65650000",
    "CountryID": 219,
    "StateID": 3491
  },
  {
    "id": 106683,
    "name": "San Kamphaeng",
    "latitude": "18.74486000",
    "longitude": "99.11953000",
    "CountryID": 219,
    "StateID": 3491
  },
  {
    "id": 106684,
    "name": "San Pa Tong",
    "latitude": "18.62828000",
    "longitude": "98.89572000",
    "CountryID": 219,
    "StateID": 3491
  },
  {
    "id": 106184,
    "name": "San Sai",
    "latitude": "18.94101000",
    "longitude": "99.04048000",
    "CountryID": 219,
    "StateID": 3491
  },
  {
    "id": 106195,
    "name": "Saraphi",
    "latitude": "18.70511000",
    "longitude": "99.02989000",
    "CountryID": 219,
    "StateID": 3491
  },
  {
    "id": 106361,
    "name": "Wiang Haeng",
    "latitude": "19.59188000",
    "longitude": "98.65845000",
    "CountryID": 219,
    "StateID": 3491
  },
  {
    "id": 105295,
    "name": "Amphoe Chiang Khong",
    "latitude": "20.13587000",
    "longitude": "100.36527000",
    "CountryID": 219,
    "StateID": 3498
  },
  {
    "id": 105299,
    "name": "Amphoe Chiang Saen",
    "latitude": "20.23572000",
    "longitude": "100.15537000",
    "CountryID": 219,
    "StateID": 3498
  },
  {
    "id": 105499,
    "name": "Amphoe Mae Chan",
    "latitude": "20.19910000",
    "longitude": "99.88468000",
    "CountryID": 219,
    "StateID": 3498
  },
  {
    "id": 105511,
    "name": "Amphoe Mae Sai",
    "latitude": "20.36500000",
    "longitude": "99.92604000",
    "CountryID": 219,
    "StateID": 3498
  },
  {
    "id": 105693,
    "name": "Amphoe Pa Daet",
    "latitude": "19.50643000",
    "longitude": "99.97615000",
    "CountryID": 219,
    "StateID": 3498
  },
  {
    "id": 106472,
    "name": "Chiang Khong",
    "latitude": "20.26125000",
    "longitude": "100.40461000",
    "CountryID": 219,
    "StateID": 3498
  },
  {
    "id": 106475,
    "name": "Chiang Rai",
    "latitude": "19.90858000",
    "longitude": "99.83250000",
    "CountryID": 219,
    "StateID": 3498
  },
  {
    "id": 106476,
    "name": "Chiang Saen",
    "latitude": "20.27511000",
    "longitude": "100.08689000",
    "CountryID": 219,
    "StateID": 3498
  },
  {
    "id": 105325,
    "name": "Doi Luang",
    "latitude": "20.14496000",
    "longitude": "100.15712000",
    "CountryID": 219,
    "StateID": 3498
  },
  {
    "id": 105433,
    "name": "Khun Tan",
    "latitude": "19.86481000",
    "longitude": "100.28731000",
    "CountryID": 219,
    "StateID": 3498
  },
  {
    "id": 106562,
    "name": "Mae Chan",
    "latitude": "20.14675000",
    "longitude": "99.85256000",
    "CountryID": 219,
    "StateID": 3498
  },
  {
    "id": 105501,
    "name": "Mae Fa Luang",
    "latitude": "20.22228000",
    "longitude": "99.64147000",
    "CountryID": 219,
    "StateID": 3498
  },
  {
    "id": 105504,
    "name": "Mae Lao",
    "latitude": "19.77223000",
    "longitude": "99.71128000",
    "CountryID": 219,
    "StateID": 3498
  },
  {
    "id": 106565,
    "name": "Mae Sai",
    "latitude": "20.43353000",
    "longitude": "99.87617000",
    "CountryID": 219,
    "StateID": 3498
  },
  {
    "id": 105514,
    "name": "Mae Suai",
    "latitude": "19.69037000",
    "longitude": "99.48459000",
    "CountryID": 219,
    "StateID": 3498
  },
  {
    "id": 105540,
    "name": "Mueang Chiang Rai",
    "latitude": "19.90824000",
    "longitude": "99.77299000",
    "CountryID": 219,
    "StateID": 3498
  },
  {
    "id": 106606,
    "name": "Pa Daet",
    "latitude": "19.50489000",
    "longitude": "99.99241000",
    "CountryID": 219,
    "StateID": 3498
  },
  {
    "id": 105720,
    "name": "Phan",
    "latitude": "19.57450000",
    "longitude": "99.77299000",
    "CountryID": 219,
    "StateID": 3498
  },
  {
    "id": 105733,
    "name": "Phaya Mengrai",
    "latitude": "19.87320000",
    "longitude": "100.16257000",
    "CountryID": 219,
    "StateID": 3498
  },
  {
    "id": 106308,
    "name": "Thoeng",
    "latitude": "19.67650000",
    "longitude": "100.20095000",
    "CountryID": 219,
    "StateID": 3498
  },
  {
    "id": 106359,
    "name": "Wiang Chai",
    "latitude": "19.86360000",
    "longitude": "100.00065000",
    "CountryID": 219,
    "StateID": 3498
  },
  {
    "id": 106360,
    "name": "Wiang Chiang Rung",
    "latitude": "20.02208000",
    "longitude": "100.07472000",
    "CountryID": 219,
    "StateID": 3498
  },
  {
    "id": 106362,
    "name": "Wiang Kaen",
    "latitude": "20.00874000",
    "longitude": "100.48641000",
    "CountryID": 219,
    "StateID": 3498
  },
  {
    "id": 106365,
    "name": "Wiang Pa Pao",
    "latitude": "19.30460000",
    "longitude": "99.44925000",
    "CountryID": 219,
    "StateID": 3498
  },
  {
    "id": 105186,
    "name": "Amphoe Ban Bueng",
    "latitude": "13.25280000",
    "longitude": "101.18151000",
    "CountryID": 219,
    "StateID": 3513
  },
  {
    "id": 105445,
    "name": "Amphoe Ko Si Chang",
    "latitude": "13.15286000",
    "longitude": "100.81156000",
    "CountryID": 219,
    "StateID": 3513
  },
  {
    "id": 105721,
    "name": "Amphoe Phan Thong",
    "latitude": "13.46300000",
    "longitude": "101.09131000",
    "CountryID": 219,
    "StateID": 3513
  },
  {
    "id": 105723,
    "name": "Amphoe Phanat Nikhom",
    "latitude": "13.46434000",
    "longitude": "101.21428000",
    "CountryID": 219,
    "StateID": 3513
  },
  {
    "id": 106197,
    "name": "Amphoe Sattahip",
    "latitude": "12.71743000",
    "longitude": "100.92754000",
    "CountryID": 219,
    "StateID": 3513
  },
  {
    "id": 106220,
    "name": "Amphoe Si Racha",
    "latitude": "13.12976000",
    "longitude": "101.04008000",
    "CountryID": 219,
    "StateID": 3513
  },
  {
    "id": 106385,
    "name": "Ban Bueng",
    "latitude": "13.31100000",
    "longitude": "101.11214000",
    "CountryID": 219,
    "StateID": 3513
  },
  {
    "id": 106396,
    "name": "Ban Ko Lan",
    "latitude": "12.92419000",
    "longitude": "100.78794000",
    "CountryID": 219,
    "StateID": 3513
  },
  {
    "id": 106416,
    "name": "Ban Talat Bueng",
    "latitude": "13.07147000",
    "longitude": "101.00314000",
    "CountryID": 219,
    "StateID": 3513
  },
  {
    "id": 106432,
    "name": "Bang Lamung",
    "latitude": "13.04704000",
    "longitude": "100.92891000",
    "CountryID": 219,
    "StateID": 3513
  },
  {
    "id": 106433,
    "name": "Bang Lamung District",
    "latitude": "12.92579000",
    "longitude": "100.89243000",
    "CountryID": 219,
    "StateID": 3513
  },
  {
    "id": 105254,
    "name": "Bo Thong",
    "latitude": "13.24227000",
    "longitude": "101.50864000",
    "CountryID": 219,
    "StateID": 3513
  },
  {
    "id": 106481,
    "name": "Chon Buri",
    "latitude": "13.36220000",
    "longitude": "100.98345000",
    "CountryID": 219,
    "StateID": 3513
  },
  {
    "id": 105438,
    "name": "Ko Chan",
    "latitude": "13.40253000",
    "longitude": "101.38800000",
    "CountryID": 219,
    "StateID": 3513
  },
  {
    "id": 106537,
    "name": "Ko Si Chang",
    "latitude": "13.16389000",
    "longitude": "100.80547000",
    "CountryID": 219,
    "StateID": 3513
  },
  {
    "id": 106572,
    "name": "Mueang Chonburi",
    "latitude": "13.34271000",
    "longitude": "101.00111000",
    "CountryID": 219,
    "StateID": 3513
  },
  {
    "id": 105686,
    "name": "Nong Yai",
    "latitude": "13.11772000",
    "longitude": "101.37471000",
    "CountryID": 219,
    "StateID": 3513
  },
  {
    "id": 106617,
    "name": "Pattaya",
    "latitude": "12.93333000",
    "longitude": "100.88333000",
    "CountryID": 219,
    "StateID": 3513
  },
  {
    "id": 106620,
    "name": "Phan Thong",
    "latitude": "13.46804000",
    "longitude": "101.09532000",
    "CountryID": 219,
    "StateID": 3513
  },
  {
    "id": 106621,
    "name": "Phanat Nikhom",
    "latitude": "13.44581000",
    "longitude": "101.18445000",
    "CountryID": 219,
    "StateID": 3513
  },
  {
    "id": 106690,
    "name": "Sattahip",
    "latitude": "12.66644000",
    "longitude": "100.90073000",
    "CountryID": 219,
    "StateID": 3513
  },
  {
    "id": 106699,
    "name": "Si Racha",
    "latitude": "13.17372000",
    "longitude": "100.93111000",
    "CountryID": 219,
    "StateID": 3513
  },
  {
    "id": 105483,
    "name": "Amphoe Lang Suan",
    "latitude": "9.93386000",
    "longitude": "99.05292000",
    "CountryID": 219,
    "StateID": 3526
  },
  {
    "id": 106403,
    "name": "Ban Nam Yuen",
    "latitude": "9.87686000",
    "longitude": "98.86592000",
    "CountryID": 219,
    "StateID": 3526
  },
  {
    "id": 106484,
    "name": "Chumphon",
    "latitude": "10.49570000",
    "longitude": "99.17971000",
    "CountryID": 219,
    "StateID": 3526
  },
  {
    "id": 105478,
    "name": "Lamae",
    "latitude": "9.75567000",
    "longitude": "99.04378000",
    "CountryID": 219,
    "StateID": 3526
  },
  {
    "id": 106553,
    "name": "Lang Suan",
    "latitude": "9.94561000",
    "longitude": "99.07847000",
    "CountryID": 219,
    "StateID": 3526
  },
  {
    "id": 105541,
    "name": "Mueang Chumphon",
    "latitude": "10.46077000",
    "longitude": "99.10608000",
    "CountryID": 219,
    "StateID": 3526
  },
  {
    "id": 105713,
    "name": "Pathio",
    "latitude": "10.81008000",
    "longitude": "99.33938000",
    "CountryID": 219,
    "StateID": 3526
  },
  {
    "id": 105731,
    "name": "Phato",
    "latitude": "9.81066000",
    "longitude": "98.80178000",
    "CountryID": 219,
    "StateID": 3526
  },
  {
    "id": 106204,
    "name": "Sawi",
    "latitude": "10.24008000",
    "longitude": "99.01865000",
    "CountryID": 219,
    "StateID": 3526
  },
  {
    "id": 106283,
    "name": "Tha Sae",
    "latitude": "10.76864000",
    "longitude": "99.09878000",
    "CountryID": 219,
    "StateID": 3526
  },
  {
    "id": 106318,
    "name": "Thung Tako",
    "latitude": "10.09223000",
    "longitude": "99.05337000",
    "CountryID": 219,
    "StateID": 3526
  },
  {
    "id": 105354,
    "name": "Amphoe Huai Mek",
    "latitude": "16.58868000",
    "longitude": "103.24098000",
    "CountryID": 219,
    "StateID": 3550
  },
  {
    "id": 105368,
    "name": "Amphoe Kamalasai",
    "latitude": "16.27999000",
    "longitude": "103.60010000",
    "CountryID": 219,
    "StateID": 3550
  },
  {
    "id": 105399,
    "name": "Amphoe Khao Wong",
    "latitude": "16.67959000",
    "longitude": "104.10030000",
    "CountryID": 219,
    "StateID": 3550
  },
  {
    "id": 105459,
    "name": "Amphoe Kuchinarai",
    "latitude": "16.51977000",
    "longitude": "104.05097000",
    "CountryID": 219,
    "StateID": 3550
  },
  {
    "id": 105670,
    "name": "Amphoe Nong Kung Si",
    "latitude": "16.71932000",
    "longitude": "103.31922000",
    "CountryID": 219,
    "StateID": 3550
  },
  {
    "id": 106376,
    "name": "Amphoe Yang Talat",
    "latitude": "16.43961000",
    "longitude": "103.34085000",
    "CountryID": 219,
    "StateID": 3550
  },
  {
    "id": 105329,
    "name": "Don Chan",
    "latitude": "16.46667000",
    "longitude": "103.71667000",
    "CountryID": 219,
    "StateID": 3550
  },
  {
    "id": 106501,
    "name": "Huai Mek",
    "latitude": "16.58975000",
    "longitude": "103.23547000",
    "CountryID": 219,
    "StateID": 3550
  },
  {
    "id": 105355,
    "name": "Huai Phueng",
    "latitude": "16.66972000",
    "longitude": "103.87997000",
    "CountryID": 219,
    "StateID": 3550
  },
  {
    "id": 106506,
    "name": "Kalasin",
    "latitude": "16.43281000",
    "longitude": "103.50658000",
    "CountryID": 219,
    "StateID": 3550
  },
  {
    "id": 106507,
    "name": "Kamalasai",
    "latitude": "16.33839000",
    "longitude": "103.57564000",
    "CountryID": 219,
    "StateID": 3550
  },
  {
    "id": 105384,
    "name": "Kham Muang",
    "latitude": "16.93884000",
    "longitude": "103.63980000",
    "CountryID": 219,
    "StateID": 3550
  },
  {
    "id": 106520,
    "name": "Khao Wong",
    "latitude": "16.70008000",
    "longitude": "104.09019000",
    "CountryID": 219,
    "StateID": 3550
  },
  {
    "id": 105423,
    "name": "Khong Chai",
    "latitude": "16.25845000",
    "longitude": "103.48167000",
    "CountryID": 219,
    "StateID": 3550
  },
  {
    "id": 106543,
    "name": "Kuchinarai",
    "latitude": "16.54100000",
    "longitude": "104.05004000",
    "CountryID": 219,
    "StateID": 3550
  },
  {
    "id": 105542,
    "name": "Mueang Kalasin",
    "latitude": "16.50918000",
    "longitude": "103.54984000",
    "CountryID": 219,
    "StateID": 3550
  },
  {
    "id": 105615,
    "name": "Na Khu",
    "latitude": "16.75018000",
    "longitude": "104.00062000",
    "CountryID": 219,
    "StateID": 3550
  },
  {
    "id": 105618,
    "name": "Na Mon",
    "latitude": "16.56994000",
    "longitude": "103.78015000",
    "CountryID": 219,
    "StateID": 3550
  },
  {
    "id": 106602,
    "name": "Nong Kung Si",
    "latitude": "16.65000000",
    "longitude": "103.30000000",
    "CountryID": 219,
    "StateID": 3550
  },
  {
    "id": 105813,
    "name": "Rong Kham",
    "latitude": "16.27925000",
    "longitude": "103.71238000",
    "CountryID": 219,
    "StateID": 3550
  },
  {
    "id": 105820,
    "name": "Sahatsakhan",
    "latitude": "16.70987000",
    "longitude": "103.57909000",
    "CountryID": 219,
    "StateID": 3550
  },
  {
    "id": 105828,
    "name": "Sam Chai",
    "latitude": "16.86909000",
    "longitude": "103.52243000",
    "CountryID": 219,
    "StateID": 3550
  },
  {
    "id": 106243,
    "name": "Somdet",
    "latitude": "16.76973000",
    "longitude": "103.75012000",
    "CountryID": 219,
    "StateID": 3550
  },
  {
    "id": 106274,
    "name": "Tha Khantho",
    "latitude": "16.88333000",
    "longitude": "103.25000000",
    "CountryID": 219,
    "StateID": 3550
  },
  {
    "id": 106757,
    "name": "Yang Talat",
    "latitude": "16.39982000",
    "longitude": "103.36785000",
    "CountryID": 219,
    "StateID": 3550
  },
  {
    "id": 105390,
    "name": "Amphoe Khanu Woralaksaburi",
    "latitude": "16.00233000",
    "longitude": "99.67618000",
    "CountryID": 219,
    "StateID": 3516
  },
  {
    "id": 105480,
    "name": "Amphoe Lan Krabue",
    "latitude": "16.60348000",
    "longitude": "99.86521000",
    "CountryID": 219,
    "StateID": 3516
  },
  {
    "id": 105263,
    "name": "Bueng Samakkhi",
    "latitude": "16.21262000",
    "longitude": "99.96720000",
    "CountryID": 219,
    "StateID": 3516
  },
  {
    "id": 106508,
    "name": "Kamphaeng Phet",
    "latitude": "16.48344000",
    "longitude": "99.52153000",
    "CountryID": 219,
    "StateID": 3516
  },
  {
    "id": 106519,
    "name": "Khanu Woralaksaburi",
    "latitude": "16.06170000",
    "longitude": "99.86058000",
    "CountryID": 219,
    "StateID": 3516
  },
  {
    "id": 105407,
    "name": "Khlong Khlung",
    "latitude": "16.22191000",
    "longitude": "99.67654000",
    "CountryID": 219,
    "StateID": 3516
  },
  {
    "id": 105409,
    "name": "Khlong Lan",
    "latitude": "16.25992000",
    "longitude": "99.21806000",
    "CountryID": 219,
    "StateID": 3516
  },
  {
    "id": 105449,
    "name": "Kosamphi Nakhon",
    "latitude": "16.60702000",
    "longitude": "99.34795000",
    "CountryID": 219,
    "StateID": 3516
  },
  {
    "id": 106551,
    "name": "Lan Krabue",
    "latitude": "16.60003000",
    "longitude": "99.84889000",
    "CountryID": 219,
    "StateID": 3516
  },
  {
    "id": 105543,
    "name": "Mueang Kamphaeng Phet",
    "latitude": "16.43254000",
    "longitude": "99.48831000",
    "CountryID": 219,
    "StateID": 3516
  },
  {
    "id": 105712,
    "name": "Pang Sila Thong",
    "latitude": "16.02525000",
    "longitude": "99.35593000",
    "CountryID": 219,
    "StateID": 3516
  },
  {
    "id": 105768,
    "name": "Phran Kratai",
    "latitude": "16.70541000",
    "longitude": "99.53704000",
    "CountryID": 219,
    "StateID": 3516
  },
  {
    "id": 105823,
    "name": "Sai Ngam",
    "latitude": "16.43956000",
    "longitude": "99.87457000",
    "CountryID": 219,
    "StateID": 3516
  },
  {
    "id": 105825,
    "name": "Sai Thong Watthana",
    "latitude": "16.30859000",
    "longitude": "99.87854000",
    "CountryID": 219,
    "StateID": 3516
  },
  {
    "id": 105252,
    "name": "Amphoe Bo Phloi",
    "latitude": "14.38723000",
    "longitude": "99.44990000",
    "CountryID": 219,
    "StateID": 3511
  },
  {
    "id": 105730,
    "name": "Amphoe Phanom Thuan",
    "latitude": "14.15941000",
    "longitude": "99.66904000",
    "CountryID": 219,
    "StateID": 3511
  },
  {
    "id": 106188,
    "name": "Amphoe Sangkhla Buri",
    "latitude": "15.19337000",
    "longitude": "98.52791000",
    "CountryID": 219,
    "StateID": 3511
  },
  {
    "id": 106278,
    "name": "Amphoe Tha Maka",
    "latitude": "13.94665000",
    "longitude": "99.77900000",
    "CountryID": 219,
    "StateID": 3511
  },
  {
    "id": 106279,
    "name": "Amphoe Tha Muang",
    "latitude": "13.90947000",
    "longitude": "99.61540000",
    "CountryID": 219,
    "StateID": 3511
  },
  {
    "id": 106452,
    "name": "Bo Phloi",
    "latitude": "14.32517000",
    "longitude": "99.51467000",
    "CountryID": 219,
    "StateID": 3511
  },
  {
    "id": 105319,
    "name": "Dan Makham Tia",
    "latitude": "13.83422000",
    "longitude": "99.34125000",
    "CountryID": 219,
    "StateID": 3511
  },
  {
    "id": 105353,
    "name": "Huai Krachao",
    "latitude": "14.34056000",
    "longitude": "99.67633000",
    "CountryID": 219,
    "StateID": 3511
  },
  {
    "id": 106510,
    "name": "Kanchanaburi",
    "latitude": "14.00412000",
    "longitude": "99.54832000",
    "CountryID": 219,
    "StateID": 3511
  },
  {
    "id": 105484,
    "name": "Lao Khwan",
    "latitude": "14.59488000",
    "longitude": "99.68338000",
    "CountryID": 219,
    "StateID": 3511
  },
  {
    "id": 105544,
    "name": "Mueang Kanchanaburi",
    "latitude": "14.06987000",
    "longitude": "99.32769000",
    "CountryID": 219,
    "StateID": 3511
  },
  {
    "id": 105677,
    "name": "Nong Prue",
    "latitude": "14.67801000",
    "longitude": "99.41075000",
    "CountryID": 219,
    "StateID": 3511
  },
  {
    "id": 106624,
    "name": "Phanom Thuan",
    "latitude": "14.13031000",
    "longitude": "99.69858000",
    "CountryID": 219,
    "StateID": 3511
  },
  {
    "id": 105826,
    "name": "Sai Yok",
    "latitude": "14.25652000",
    "longitude": "98.93372000",
    "CountryID": 219,
    "StateID": 3511
  },
  {
    "id": 106685,
    "name": "Sangkhla Buri",
    "latitude": "15.15553000",
    "longitude": "98.45361000",
    "CountryID": 219,
    "StateID": 3511
  },
  {
    "id": 106225,
    "name": "Si Sawat",
    "latitude": "14.67254000",
    "longitude": "99.12992000",
    "CountryID": 219,
    "StateID": 3511
  },
  {
    "id": 106722,
    "name": "Tha Maka",
    "latitude": "13.90000000",
    "longitude": "99.76667000",
    "CountryID": 219,
    "StateID": 3511
  },
  {
    "id": 106723,
    "name": "Tha Muang",
    "latitude": "13.96118000",
    "longitude": "99.64122000",
    "CountryID": 219,
    "StateID": 3511
  },
  {
    "id": 106309,
    "name": "Thong Pha Phum",
    "latitude": "14.83277000",
    "longitude": "98.69233000",
    "CountryID": 219,
    "StateID": 3511
  },
  {
    "id": 105211,
    "name": "Amphoe Ban Phai",
    "latitude": "16.04603000",
    "longitude": "102.77755000",
    "CountryID": 219,
    "StateID": 3485
  },
  {
    "id": 105310,
    "name": "Amphoe Chum Phae",
    "latitude": "16.61591000",
    "longitude": "102.09619000",
    "CountryID": 219,
    "StateID": 3485
  },
  {
    "id": 105452,
    "name": "Amphoe Kranuan",
    "latitude": "16.75261000",
    "longitude": "103.08044000",
    "CountryID": 219,
    "StateID": 3485
  },
  {
    "id": 105751,
    "name": "Amphoe Phon",
    "latitude": "15.80672000",
    "longitude": "102.59111000",
    "CountryID": 219,
    "StateID": 3485
  },
  {
    "id": 105801,
    "name": "Amphoe Pueai Noi",
    "latitude": "15.88867000",
    "longitude": "102.87618000",
    "CountryID": 219,
    "StateID": 3485
  },
  {
    "id": 105191,
    "name": "Ban Fang",
    "latitude": "16.49162000",
    "longitude": "102.61669000",
    "CountryID": 219,
    "StateID": 3485
  },
  {
    "id": 105192,
    "name": "Ban Haet",
    "latitude": "16.20067000",
    "longitude": "102.77465000",
    "CountryID": 219,
    "StateID": 3485
  },
  {
    "id": 106406,
    "name": "Ban Phai",
    "latitude": "16.05997000",
    "longitude": "102.73097000",
    "CountryID": 219,
    "StateID": 3485
  },
  {
    "id": 105307,
    "name": "Chonnabot",
    "latitude": "16.02249000",
    "longitude": "102.55946000",
    "CountryID": 219,
    "StateID": 3485
  },
  {
    "id": 106483,
    "name": "Chum Phae",
    "latitude": "16.54430000",
    "longitude": "102.09924000",
    "CountryID": 219,
    "StateID": 3485
  },
  {
    "id": 105398,
    "name": "Khao Suan Kwang",
    "latitude": "16.91682000",
    "longitude": "102.78206000",
    "CountryID": 219,
    "StateID": 3485
  },
  {
    "id": 105417,
    "name": "Khok Pho Chai",
    "latitude": "16.07194000",
    "longitude": "102.38428000",
    "CountryID": 219,
    "StateID": 3485
  },
  {
    "id": 106531,
    "name": "Khon Kaen",
    "latitude": "16.44671000",
    "longitude": "102.83300000",
    "CountryID": 219,
    "StateID": 3485
  },
  {
    "id": 106541,
    "name": "Kranuan",
    "latitude": "16.70672000",
    "longitude": "103.07878000",
    "CountryID": 219,
    "StateID": 3485
  },
  {
    "id": 105525,
    "name": "Mancha Khiri",
    "latitude": "16.21242000",
    "longitude": "102.51973000",
    "CountryID": 219,
    "StateID": 3485
  },
  {
    "id": 105545,
    "name": "Mueang Khon Kaen",
    "latitude": "16.46048000",
    "longitude": "102.80873000",
    "CountryID": 219,
    "StateID": 3485
  },
  {
    "id": 105638,
    "name": "Nam Phong",
    "latitude": "16.69946000",
    "longitude": "102.88125000",
    "CountryID": 219,
    "StateID": 3485
  },
  {
    "id": 105654,
    "name": "Non Sila",
    "latitude": "15.96420000",
    "longitude": "102.69074000",
    "CountryID": 219,
    "StateID": 3485
  },
  {
    "id": 105674,
    "name": "Nong Na Kham",
    "latitude": "16.81010000",
    "longitude": "102.32800000",
    "CountryID": 219,
    "StateID": 3485
  },
  {
    "id": 105678,
    "name": "Nong Ruea",
    "latitude": "16.49166000",
    "longitude": "102.44572000",
    "CountryID": 219,
    "StateID": 3485
  },
  {
    "id": 105681,
    "name": "Nong Song Hong",
    "latitude": "15.76419000",
    "longitude": "102.79174000",
    "CountryID": 219,
    "StateID": 3485
  },
  {
    "id": 106639,
    "name": "Phon",
    "latitude": "15.81600000",
    "longitude": "102.59981000",
    "CountryID": 219,
    "StateID": 3485
  },
  {
    "id": 105766,
    "name": "Phra Yuen",
    "latitude": "16.30823000",
    "longitude": "102.67108000",
    "CountryID": 219,
    "StateID": 3485
  },
  {
    "id": 105777,
    "name": "Phu Pha Man",
    "latitude": "16.71864000",
    "longitude": "101.87081000",
    "CountryID": 219,
    "StateID": 3485
  },
  {
    "id": 105783,
    "name": "Phu Wiang",
    "latitude": "16.67910000",
    "longitude": "102.39893000",
    "CountryID": 219,
    "StateID": 3485
  },
  {
    "id": 106659,
    "name": "Pueai Noi",
    "latitude": "15.86978000",
    "longitude": "102.90767000",
    "CountryID": 219,
    "StateID": 3485
  },
  {
    "id": 106178,
    "name": "Sam Sung",
    "latitude": "16.56208000",
    "longitude": "103.05473000",
    "CountryID": 219,
    "StateID": 3485
  },
  {
    "id": 106212,
    "name": "Si Chom Phu",
    "latitude": "16.76258000",
    "longitude": "102.13078000",
    "CountryID": 219,
    "StateID": 3485
  },
  {
    "id": 106325,
    "name": "Ubolratana",
    "latitude": "16.77766000",
    "longitude": "102.67536000",
    "CountryID": 219,
    "StateID": 3485
  },
  {
    "id": 106331,
    "name": "Waeng Noi",
    "latitude": "15.80631000",
    "longitude": "102.42358000",
    "CountryID": 219,
    "StateID": 3485
  },
  {
    "id": 106332,
    "name": "Waeng Yai",
    "latitude": "15.92532000",
    "longitude": "102.46221000",
    "CountryID": 219,
    "StateID": 3485
  },
  {
    "id": 106363,
    "name": "Wiang Kao",
    "latitude": "16.70138000",
    "longitude": "102.29186000",
    "CountryID": 219,
    "StateID": 3485
  },
  {
    "id": 105182,
    "name": "Amphoe Ao Luek",
    "latitude": "8.38526000",
    "longitude": "98.75378000",
    "CountryID": 219,
    "StateID": 3478
  },
  {
    "id": 105442,
    "name": "Amphoe Ko Lanta",
    "latitude": "7.71267000",
    "longitude": "99.07813000",
    "CountryID": 219,
    "StateID": 3478
  },
  {
    "id": 105689,
    "name": "Amphoe Nuea Khlong",
    "latitude": "8.06058000",
    "longitude": "99.04039000",
    "CountryID": 219,
    "StateID": 3478
  },
  {
    "id": 106381,
    "name": "Ao Luek",
    "latitude": "8.37803000",
    "longitude": "98.72117000",
    "CountryID": 219,
    "StateID": 3478
  },
  {
    "id": 105396,
    "name": "Khao Phanom",
    "latitude": "8.26953000",
    "longitude": "99.11813000",
    "CountryID": 219,
    "StateID": 3478
  },
  {
    "id": 105411,
    "name": "Khlong Thom",
    "latitude": "7.91470000",
    "longitude": "99.19935000",
    "CountryID": 219,
    "StateID": 3478
  },
  {
    "id": 106534,
    "name": "Ko Lanta",
    "latitude": "7.53362000",
    "longitude": "99.08647000",
    "CountryID": 219,
    "StateID": 3478
  },
  {
    "id": 106540,
    "name": "Krabi",
    "latitude": "8.07257000",
    "longitude": "98.91052000",
    "CountryID": 219,
    "StateID": 3478
  },
  {
    "id": 105477,
    "name": "Lam Thap",
    "latitude": "8.04799000",
    "longitude": "99.33543000",
    "CountryID": 219,
    "StateID": 3478
  },
  {
    "id": 105546,
    "name": "Mueang Krabi",
    "latitude": "8.15947000",
    "longitude": "98.86661000",
    "CountryID": 219,
    "StateID": 3478
  },
  {
    "id": 106605,
    "name": "Nuea Khlong",
    "latitude": "8.07143000",
    "longitude": "98.99933000",
    "CountryID": 219,
    "StateID": 3478
  },
  {
    "id": 105789,
    "name": "Plai Phraya",
    "latitude": "8.54087000",
    "longitude": "98.83671000",
    "CountryID": 219,
    "StateID": 3478
  },
  {
    "id": 106676,
    "name": "Saladan",
    "latitude": "7.61342000",
    "longitude": "99.03651000",
    "CountryID": 219,
    "StateID": 3478
  },
  {
    "id": 105517,
    "name": "Amphoe Mae Tha",
    "latitude": "18.11122000",
    "longitude": "99.57826000",
    "CountryID": 219,
    "StateID": 3544
  },
  {
    "id": 106307,
    "name": "Amphoe Thoen",
    "latitude": "17.58128000",
    "longitude": "99.28836000",
    "CountryID": 219,
    "StateID": 3544
  },
  {
    "id": 106342,
    "name": "Amphoe Wang Nuea",
    "latitude": "19.16011000",
    "longitude": "99.64767000",
    "CountryID": 219,
    "StateID": 3544
  },
  {
    "id": 105268,
    "name": "Chae Hom",
    "latitude": "18.75404000",
    "longitude": "99.66822000",
    "CountryID": 219,
    "StateID": 3544
  },
  {
    "id": 105343,
    "name": "Hang Chat",
    "latitude": "18.35497000",
    "longitude": "99.27978000",
    "CountryID": 219,
    "StateID": 3544
  },
  {
    "id": 105440,
    "name": "Ko Kha",
    "latitude": "18.14408000",
    "longitude": "99.35229000",
    "CountryID": 219,
    "StateID": 3544
  },
  {
    "id": 106549,
    "name": "Lampang",
    "latitude": "18.29232000",
    "longitude": "99.49277000",
    "CountryID": 219,
    "StateID": 3544
  },
  {
    "id": 105505,
    "name": "Mae Mo",
    "latitude": "18.40244000",
    "longitude": "99.82135000",
    "CountryID": 219,
    "StateID": 3544
  },
  {
    "id": 105507,
    "name": "Mae Phrik",
    "latitude": "17.50450000",
    "longitude": "99.05847000",
    "CountryID": 219,
    "StateID": 3544
  },
  {
    "id": 105547,
    "name": "Mueang Lampang",
    "latitude": "18.38901000",
    "longitude": "99.54388000",
    "CountryID": 219,
    "StateID": 3544
  },
  {
    "id": 105564,
    "name": "Mueang Pan",
    "latitude": "18.79093000",
    "longitude": "99.45408000",
    "CountryID": 219,
    "StateID": 3544
  },
  {
    "id": 105642,
    "name": "Ngao",
    "latitude": "18.75948000",
    "longitude": "99.95295000",
    "CountryID": 219,
    "StateID": 3544
  },
  {
    "id": 106240,
    "name": "Soem Ngam",
    "latitude": "18.09406000",
    "longitude": "99.17297000",
    "CountryID": 219,
    "StateID": 3544
  },
  {
    "id": 106249,
    "name": "Sop Prap",
    "latitude": "17.89861000",
    "longitude": "99.34081000",
    "CountryID": 219,
    "StateID": 3544
  },
  {
    "id": 106731,
    "name": "Thoen",
    "latitude": "17.61289000",
    "longitude": "99.21612000",
    "CountryID": 219,
    "StateID": 3544
  },
  {
    "id": 106745,
    "name": "Wang Nuea",
    "latitude": "19.14678000",
    "longitude": "99.61933000",
    "CountryID": 219,
    "StateID": 3544
  },
  {
    "id": 105516,
    "name": "Amphoe Mae Tha",
    "latitude": "18.39540000",
    "longitude": "99.09233000",
    "CountryID": 219,
    "StateID": 3483
  },
  {
    "id": 105697,
    "name": "Amphoe Pa Sang",
    "latitude": "18.41397000",
    "longitude": "98.88281000",
    "CountryID": 219,
    "StateID": 3483
  },
  {
    "id": 105193,
    "name": "Ban Hong",
    "latitude": "18.27422000",
    "longitude": "98.83794000",
    "CountryID": 219,
    "StateID": 3483
  },
  {
    "id": 105220,
    "name": "Ban Thi",
    "latitude": "18.65894000",
    "longitude": "99.15883000",
    "CountryID": 219,
    "StateID": 3483
  },
  {
    "id": 106550,
    "name": "Lamphun",
    "latitude": "18.58054000",
    "longitude": "99.00745000",
    "CountryID": 219,
    "StateID": 3483
  },
  {
    "id": 105490,
    "name": "Li",
    "latitude": "17.78639000",
    "longitude": "98.88674000",
    "CountryID": 219,
    "StateID": 3483
  },
  {
    "id": 106567,
    "name": "Mae Tha",
    "latitude": "18.46456000",
    "longitude": "99.14026000",
    "CountryID": 219,
    "StateID": 3483
  },
  {
    "id": 105548,
    "name": "Mueang Lamphun",
    "latitude": "18.55217000",
    "longitude": "99.05905000",
    "CountryID": 219,
    "StateID": 3483
  },
  {
    "id": 106607,
    "name": "Pa Sang",
    "latitude": "18.52617000",
    "longitude": "98.93936000",
    "CountryID": 219,
    "StateID": 3483
  },
  {
    "id": 106313,
    "name": "Thung Hua Chang",
    "latitude": "17.98333000",
    "longitude": "99.05000000",
    "CountryID": 219,
    "StateID": 3483
  },
  {
    "id": 106364,
    "name": "Wiang Nong Long",
    "latitude": "18.41844000",
    "longitude": "98.75856000",
    "CountryID": 219,
    "StateID": 3483
  },
  {
    "id": 105775,
    "name": "Amphoe Phu Kradueng",
    "latitude": "16.90190000",
    "longitude": "101.84562000",
    "CountryID": 219,
    "StateID": 3509
  },
  {
    "id": 106346,
    "name": "Amphoe Wang Saphung",
    "latitude": "17.28028000",
    "longitude": "101.73342000",
    "CountryID": 219,
    "StateID": 3509
  },
  {
    "id": 105294,
    "name": "Chiang Khan",
    "latitude": "17.82441000",
    "longitude": "101.73424000",
    "CountryID": 219,
    "StateID": 3509
  },
  {
    "id": 105320,
    "name": "Dan Sai",
    "latitude": "17.22101000",
    "longitude": "101.22373000",
    "CountryID": 219,
    "StateID": 3509
  },
  {
    "id": 105338,
    "name": "Erawan",
    "latitude": "17.28823000",
    "longitude": "101.97443000",
    "CountryID": 219,
    "StateID": 3509
  },
  {
    "id": 106557,
    "name": "Loei",
    "latitude": "17.49052000",
    "longitude": "101.72749000",
    "CountryID": 219,
    "StateID": 3509
  },
  {
    "id": 105549,
    "name": "Mueang Loei",
    "latitude": "17.54211000",
    "longitude": "101.71932000",
    "CountryID": 219,
    "StateID": 3509
  },
  {
    "id": 105611,
    "name": "Na Duang",
    "latitude": "17.53833000",
    "longitude": "101.99639000",
    "CountryID": 219,
    "StateID": 3509
  },
  {
    "id": 105613,
    "name": "Na Haeo",
    "latitude": "17.43942000",
    "longitude": "100.99654000",
    "CountryID": 219,
    "StateID": 3509
  },
  {
    "id": 105665,
    "name": "Nong Hin",
    "latitude": "17.08087000",
    "longitude": "101.82643000",
    "CountryID": 219,
    "StateID": 3509
  },
  {
    "id": 105700,
    "name": "Pak Chom",
    "latitude": "17.91100000",
    "longitude": "101.95777000",
    "CountryID": 219,
    "StateID": 3509
  },
  {
    "id": 105716,
    "name": "Pha Khao",
    "latitude": "17.05638000",
    "longitude": "102.01575000",
    "CountryID": 219,
    "StateID": 3509
  },
  {
    "id": 106649,
    "name": "Phu Kradueng",
    "latitude": "16.88425000",
    "longitude": "101.88467000",
    "CountryID": 219,
    "StateID": 3509
  },
  {
    "id": 105776,
    "name": "Phu Luang",
    "latitude": "17.09782000",
    "longitude": "101.64413000",
    "CountryID": 219,
    "StateID": 3509
  },
  {
    "id": 105780,
    "name": "Phu Ruea",
    "latitude": "17.35076000",
    "longitude": "101.41329000",
    "CountryID": 219,
    "StateID": 3509
  },
  {
    "id": 106275,
    "name": "Tha Li",
    "latitude": "17.61279000",
    "longitude": "101.44141000",
    "CountryID": 219,
    "StateID": 3509
  },
  {
    "id": 106747,
    "name": "Wang Saphung",
    "latitude": "17.30097000",
    "longitude": "101.76850000",
    "CountryID": 219,
    "StateID": 3509
  },
  {
    "id": 105269,
    "name": "Amphoe Chai Badan",
    "latitude": "15.18944000",
    "longitude": "101.12682000",
    "CountryID": 219,
    "StateID": 3543
  },
  {
    "id": 105203,
    "name": "Ban Mi",
    "latitude": "15.06154000",
    "longitude": "100.55200000",
    "CountryID": 219,
    "StateID": 3543
  },
  {
    "id": 106461,
    "name": "Chai Badan",
    "latitude": "15.20000000",
    "longitude": "101.13333000",
    "CountryID": 219,
    "StateID": 3543
  },
  {
    "id": 105415,
    "name": "Khok Charoen",
    "latitude": "15.40384000",
    "longitude": "100.84968000",
    "CountryID": 219,
    "StateID": 3543
  },
  {
    "id": 105418,
    "name": "Khok Samrong",
    "latitude": "15.04303000",
    "longitude": "100.77151000",
    "CountryID": 219,
    "StateID": 3543
  },
  {
    "id": 105475,
    "name": "Lam Sonthi",
    "latitude": "15.32833000",
    "longitude": "101.34783000",
    "CountryID": 219,
    "StateID": 3543
  },
  {
    "id": 106560,
    "name": "Lop Buri",
    "latitude": "14.79808000",
    "longitude": "100.65397000",
    "CountryID": 219,
    "StateID": 3543
  },
  {
    "id": 106571,
    "name": "Muang Lop Buri",
    "latitude": "14.82334000",
    "longitude": "100.67557000",
    "CountryID": 219,
    "StateID": 3543
  },
  {
    "id": 105672,
    "name": "Nong Muang",
    "latitude": "15.27740000",
    "longitude": "100.70413000",
    "CountryID": 219,
    "StateID": 3543
  },
  {
    "id": 105732,
    "name": "Phatthana Nikhom",
    "latitude": "14.90917000",
    "longitude": "101.02673000",
    "CountryID": 219,
    "StateID": 3543
  },
  {
    "id": 105816,
    "name": "Sa Bot",
    "latitude": "15.23832000",
    "longitude": "100.88318000",
    "CountryID": 219,
    "StateID": 3543
  },
  {
    "id": 106276,
    "name": "Tha Luang",
    "latitude": "15.04786000",
    "longitude": "101.19986000",
    "CountryID": 219,
    "StateID": 3543
  },
  {
    "id": 106291,
    "name": "Tha Wung",
    "latitude": "14.82506000",
    "longitude": "100.50921000",
    "CountryID": 219,
    "StateID": 3543
  },
  {
    "id": 105434,
    "name": "Khun Yuam",
    "latitude": "18.82643000",
    "longitude": "97.93303000",
    "CountryID": 219,
    "StateID": 3505
  },
  {
    "id": 106563,
    "name": "Mae Hong Son",
    "latitude": "19.30029000",
    "longitude": "97.96852000",
    "CountryID": 219,
    "StateID": 3505
  },
  {
    "id": 105502,
    "name": "Mae La Noi",
    "latitude": "18.47823000",
    "longitude": "97.98295000",
    "CountryID": 219,
    "StateID": 3505
  },
  {
    "id": 105512,
    "name": "Mae Sariang",
    "latitude": "18.26474000",
    "longitude": "97.77057000",
    "CountryID": 219,
    "StateID": 3505
  },
  {
    "id": 105550,
    "name": "Mueang Mae Hong Son",
    "latitude": "19.28862000",
    "longitude": "98.00607000",
    "CountryID": 219,
    "StateID": 3505
  },
  {
    "id": 105699,
    "name": "Pai",
    "latitude": "19.36036000",
    "longitude": "98.40638000",
    "CountryID": 219,
    "StateID": 3505
  },
  {
    "id": 105711,
    "name": "Pang Mapha",
    "latitude": "19.60451000",
    "longitude": "98.20560000",
    "CountryID": 219,
    "StateID": 3505
  },
  {
    "id": 106248,
    "name": "Sop Moei",
    "latitude": "17.96333000",
    "longitude": "97.93149000",
    "CountryID": 219,
    "StateID": 3505
  },
  {
    "id": 105450,
    "name": "Amphoe Kosum Phisai",
    "latitude": "16.23882000",
    "longitude": "102.99081000",
    "CountryID": 219,
    "StateID": 3517
  },
  {
    "id": 105734,
    "name": "Amphoe Phayakkhaphum Phisai",
    "latitude": "15.51963000",
    "longitude": "103.23268000",
    "CountryID": 219,
    "StateID": 3517
  },
  {
    "id": 106352,
    "name": "Amphoe Wapi Pathum",
    "latitude": "15.85953000",
    "longitude": "103.34091000",
    "CountryID": 219,
    "StateID": 3517
  },
  {
    "id": 105255,
    "name": "Borabue",
    "latitude": "15.98881000",
    "longitude": "103.12521000",
    "CountryID": 219,
    "StateID": 3517
  },
  {
    "id": 105300,
    "name": "Chiang Yuen",
    "latitude": "16.40942000",
    "longitude": "103.07005000",
    "CountryID": 219,
    "StateID": 3517
  },
  {
    "id": 105308,
    "name": "Chuen Chom",
    "latitude": "16.54801000",
    "longitude": "103.14796000",
    "CountryID": 219,
    "StateID": 3517
  },
  {
    "id": 105363,
    "name": "Kae Dam",
    "latitude": "16.04961000",
    "longitude": "103.38953000",
    "CountryID": 219,
    "StateID": 3517
  },
  {
    "id": 105373,
    "name": "Kantharawichai",
    "latitude": "16.27992000",
    "longitude": "103.25892000",
    "CountryID": 219,
    "StateID": 3517
  },
  {
    "id": 106539,
    "name": "Kosum Phisai",
    "latitude": "16.24858000",
    "longitude": "103.06739000",
    "CountryID": 219,
    "StateID": 3517
  },
  {
    "id": 105467,
    "name": "Kut Rang",
    "latitude": "16.02970000",
    "longitude": "102.95059000",
    "CountryID": 219,
    "StateID": 3517
  },
  {
    "id": 106568,
    "name": "Maha Sarakham",
    "latitude": "16.18483000",
    "longitude": "103.30067000",
    "CountryID": 219,
    "StateID": 3517
  },
  {
    "id": 105551,
    "name": "Mueang Maha Sarakham",
    "latitude": "16.11882000",
    "longitude": "103.31160000",
    "CountryID": 219,
    "StateID": 3517
  },
  {
    "id": 105609,
    "name": "Na Chueak",
    "latitude": "15.80180000",
    "longitude": "103.05725000",
    "CountryID": 219,
    "StateID": 3517
  },
  {
    "id": 105612,
    "name": "Na Dun",
    "latitude": "15.71952000",
    "longitude": "103.23004000",
    "CountryID": 219,
    "StateID": 3517
  },
  {
    "id": 106628,
    "name": "Phayakkhaphum Phisai",
    "latitude": "15.51631000",
    "longitude": "103.19367000",
    "CountryID": 219,
    "StateID": 3517
  },
  {
    "id": 106749,
    "name": "Wapi Pathum",
    "latitude": "15.84523000",
    "longitude": "103.37678000",
    "CountryID": 219,
    "StateID": 3517
  },
  {
    "id": 106375,
    "name": "Yang Si Surat",
    "latitude": "15.64953000",
    "longitude": "103.08916000",
    "CountryID": 219,
    "StateID": 3517
  },
  {
    "id": 105334,
    "name": "Don Tan",
    "latitude": "16.28796000",
    "longitude": "104.82231000",
    "CountryID": 219,
    "StateID": 3546
  },
  {
    "id": 105337,
    "name": "Dong Luang",
    "latitude": "16.79649000",
    "longitude": "104.35562000",
    "CountryID": 219,
    "StateID": 3546
  },
  {
    "id": 105388,
    "name": "Khamcha-i",
    "latitude": "16.61452000",
    "longitude": "104.35929000",
    "CountryID": 219,
    "StateID": 3546
  },
  {
    "id": 105552,
    "name": "Mueang Mukdahan",
    "latitude": "16.55110000",
    "longitude": "104.64605000",
    "CountryID": 219,
    "StateID": 3546
  },
  {
    "id": 106574,
    "name": "Mukdahan",
    "latitude": "16.54531000",
    "longitude": "104.72351000",
    "CountryID": 219,
    "StateID": 3546
  },
  {
    "id": 105643,
    "name": "Nikhom Kham Soi",
    "latitude": "16.35375000",
    "longitude": "104.55864000",
    "CountryID": 219,
    "StateID": 3546
  },
  {
    "id": 105683,
    "name": "Nong Sung",
    "latitude": "16.44759000",
    "longitude": "104.33649000",
    "CountryID": 219,
    "StateID": 3546
  },
  {
    "id": 106333,
    "name": "Wan Yai",
    "latitude": "16.72030000",
    "longitude": "104.72865000",
    "CountryID": 219,
    "StateID": 3546
  },
  {
    "id": 105206,
    "name": "Ban Na",
    "latitude": "14.26799000",
    "longitude": "101.06445000",
    "CountryID": 219,
    "StateID": 3535
  },
  {
    "id": 105553,
    "name": "Mueang Nakhon Nayok",
    "latitude": "14.27730000",
    "longitude": "101.23379000",
    "CountryID": 219,
    "StateID": 3535
  },
  {
    "id": 106580,
    "name": "Nakhon Nayok",
    "latitude": "14.20463000",
    "longitude": "101.21295000",
    "CountryID": 219,
    "StateID": 3535
  },
  {
    "id": 105691,
    "name": "Ongkharak",
    "latitude": "14.07554000",
    "longitude": "101.00891000",
    "CountryID": 219,
    "StateID": 3535
  },
  {
    "id": 105706,
    "name": "Pak Phli",
    "latitude": "14.22499000",
    "longitude": "101.34482000",
    "CountryID": 219,
    "StateID": 3535
  },
  {
    "id": 105231,
    "name": "Amphoe Bang Len",
    "latitude": "14.05000000",
    "longitude": "100.18333000",
    "CountryID": 219,
    "StateID": 3503
  },
  {
    "id": 106176,
    "name": "Amphoe Sam Phran",
    "latitude": "13.72035000",
    "longitude": "100.21071000",
    "CountryID": 219,
    "StateID": 3503
  },
  {
    "id": 106434,
    "name": "Bang Len",
    "latitude": "14.02188000",
    "longitude": "100.17183000",
    "CountryID": 219,
    "StateID": 3503
  },
  {
    "id": 105335,
    "name": "Don Tum",
    "latitude": "13.94499000",
    "longitude": "100.09003000",
    "CountryID": 219,
    "StateID": 3503
  },
  {
    "id": 106509,
    "name": "Kamphaeng Saen",
    "latitude": "14.02823000",
    "longitude": "99.96152000",
    "CountryID": 219,
    "StateID": 3503
  },
  {
    "id": 105554,
    "name": "Mueang Nakhon Pathom",
    "latitude": "13.81944000",
    "longitude": "100.02375000",
    "CountryID": 219,
    "StateID": 3503
  },
  {
    "id": 105631,
    "name": "Nakhon Chai Si",
    "latitude": "13.81173000",
    "longitude": "100.18157000",
    "CountryID": 219,
    "StateID": 3503
  },
  {
    "id": 106581,
    "name": "Nakhon Pathom",
    "latitude": "13.81960000",
    "longitude": "100.04427000",
    "CountryID": 219,
    "StateID": 3503
  },
  {
    "id": 105786,
    "name": "Phutthamonthon",
    "latitude": "13.82559000",
    "longitude": "100.29239000",
    "CountryID": 219,
    "StateID": 3503
  },
  {
    "id": 106677,
    "name": "Sam Phran",
    "latitude": "13.72698000",
    "longitude": "100.21526000",
    "CountryID": 219,
    "StateID": 3503
  },
  {
    "id": 105625,
    "name": "Amphoe Na Wa",
    "latitude": "17.49922000",
    "longitude": "104.11833000",
    "CountryID": 219,
    "StateID": 3548
  },
  {
    "id": 106303,
    "name": "Amphoe That Phanom",
    "latitude": "16.96457000",
    "longitude": "104.70277000",
    "CountryID": 219,
    "StateID": 3548
  },
  {
    "id": 105209,
    "name": "Ban Phaeng",
    "latitude": "17.86955000",
    "longitude": "104.22744000",
    "CountryID": 219,
    "StateID": 3548
  },
  {
    "id": 105555,
    "name": "Mueang Nakhon Phanom",
    "latitude": "17.31965000",
    "longitude": "104.68232000",
    "CountryID": 219,
    "StateID": 3548
  },
  {
    "id": 105614,
    "name": "Na Kae",
    "latitude": "16.95737000",
    "longitude": "104.49349000",
    "CountryID": 219,
    "StateID": 3548
  },
  {
    "id": 105624,
    "name": "Na Thom",
    "latitude": "17.82134000",
    "longitude": "104.10871000",
    "CountryID": 219,
    "StateID": 3548
  },
  {
    "id": 106577,
    "name": "Na Wa",
    "latitude": "17.48970000",
    "longitude": "104.10056000",
    "CountryID": 219,
    "StateID": 3548
  },
  {
    "id": 106582,
    "name": "Nakhon Phanom",
    "latitude": "17.41081000",
    "longitude": "104.77856000",
    "CountryID": 219,
    "StateID": 3548
  },
  {
    "id": 105755,
    "name": "Phon Sawan",
    "latitude": "17.46868000",
    "longitude": "104.42234000",
    "CountryID": 219,
    "StateID": 3548
  },
  {
    "id": 105787,
    "name": "Pla Pak",
    "latitude": "17.20133000",
    "longitude": "104.54674000",
    "CountryID": 219,
    "StateID": 3548
  },
  {
    "id": 105811,
    "name": "Renu Nakhon",
    "latitude": "17.05080000",
    "longitude": "104.65664000",
    "CountryID": 219,
    "StateID": 3548
  },
  {
    "id": 106227,
    "name": "Si Songkhram",
    "latitude": "17.62989000",
    "longitude": "104.24495000",
    "CountryID": 219,
    "StateID": 3548
  },
  {
    "id": 106289,
    "name": "Tha Uthen",
    "latitude": "17.59263000",
    "longitude": "104.49884000",
    "CountryID": 219,
    "StateID": 3548
  },
  {
    "id": 106729,
    "name": "That Phanom",
    "latitude": "16.93636000",
    "longitude": "104.71039000",
    "CountryID": 219,
    "StateID": 3548
  },
  {
    "id": 106350,
    "name": "Wangyang",
    "latitude": "17.07189000",
    "longitude": "104.45373000",
    "CountryID": 219,
    "StateID": 3548
  },
  {
    "id": 105258,
    "name": "Amphoe Bua Yai",
    "latitude": "15.58488000",
    "longitude": "102.38738000",
    "CountryID": 219,
    "StateID": 3497
  },
  {
    "id": 105302,
    "name": "Amphoe Chok Chai",
    "latitude": "14.76341000",
    "longitude": "102.20338000",
    "CountryID": 219,
    "StateID": 3497
  },
  {
    "id": 105318,
    "name": "Amphoe Dan Khun Thot",
    "latitude": "15.21835000",
    "longitude": "101.69790000",
    "CountryID": 219,
    "StateID": 3497
  },
  {
    "id": 105385,
    "name": "Amphoe Kham Sakae Saeng",
    "latitude": "15.38042000",
    "longitude": "102.16636000",
    "CountryID": 219,
    "StateID": 3497
  },
  {
    "id": 105421,
    "name": "Amphoe Khon Buri",
    "latitude": "14.37634000",
    "longitude": "102.21746000",
    "CountryID": 219,
    "StateID": 3497
  },
  {
    "id": 105655,
    "name": "Amphoe Non Sung",
    "latitude": "15.20892000",
    "longitude": "102.28400000",
    "CountryID": 219,
    "StateID": 3497
  },
  {
    "id": 105657,
    "name": "Amphoe Non Thai",
    "latitude": "15.18106000",
    "longitude": "102.03001000",
    "CountryID": 219,
    "StateID": 3497
  },
  {
    "id": 105701,
    "name": "Amphoe Pak Chong",
    "latitude": "14.61923000",
    "longitude": "101.44814000",
    "CountryID": 219,
    "StateID": 3497
  },
  {
    "id": 105708,
    "name": "Amphoe Pak Thong Chai",
    "latitude": "14.66228000",
    "longitude": "101.94227000",
    "CountryID": 219,
    "StateID": 3497
  },
  {
    "id": 105741,
    "name": "Amphoe Phimai",
    "latitude": "15.24622000",
    "longitude": "102.54217000",
    "CountryID": 219,
    "StateID": 3497
  },
  {
    "id": 106241,
    "name": "Amphoe Soeng Sang",
    "latitude": "14.34456000",
    "longitude": "102.49297000",
    "CountryID": 219,
    "StateID": 3497
  },
  {
    "id": 106257,
    "name": "Amphoe Sung Noen",
    "latitude": "14.85623000",
    "longitude": "101.83049000",
    "CountryID": 219,
    "StateID": 3497
  },
  {
    "id": 106390,
    "name": "Ban Huai Thalaeng",
    "latitude": "14.98333000",
    "longitude": "102.65000000",
    "CountryID": 219,
    "StateID": 3497
  },
  {
    "id": 105201,
    "name": "Ban Lueam",
    "latitude": "15.57431000",
    "longitude": "102.14204000",
    "CountryID": 219,
    "StateID": 3497
  },
  {
    "id": 105257,
    "name": "Bua Lai",
    "latitude": "15.66917000",
    "longitude": "102.51761000",
    "CountryID": 219,
    "StateID": 3497
  },
  {
    "id": 106454,
    "name": "Bua Yai",
    "latitude": "15.58552000",
    "longitude": "102.42587000",
    "CountryID": 219,
    "StateID": 3497
  },
  {
    "id": 105275,
    "name": "Chakkarat",
    "latitude": "14.95686000",
    "longitude": "102.43718000",
    "CountryID": 219,
    "StateID": 3497
  },
  {
    "id": 105280,
    "name": "Chaloem Phra Kiat",
    "latitude": "14.97540000",
    "longitude": "102.29372000",
    "CountryID": 219,
    "StateID": 3497
  },
  {
    "id": 106477,
    "name": "Chok Chai",
    "latitude": "14.72844000",
    "longitude": "102.16524000",
    "CountryID": 219,
    "StateID": 3497
  },
  {
    "id": 105311,
    "name": "Chum Phuang",
    "latitude": "15.25990000",
    "longitude": "102.75756000",
    "CountryID": 219,
    "StateID": 3497
  },
  {
    "id": 106486,
    "name": "Dan Khun Thot",
    "latitude": "15.20850000",
    "longitude": "101.77138000",
    "CountryID": 219,
    "StateID": 3497
  },
  {
    "id": 105357,
    "name": "Huai Thalaeng",
    "latitude": "15.04244000",
    "longitude": "102.63535000",
    "CountryID": 219,
    "StateID": 3497
  },
  {
    "id": 105367,
    "name": "Kaeng Sanam Nang",
    "latitude": "15.69561000",
    "longitude": "102.25366000",
    "CountryID": 219,
    "StateID": 3497
  },
  {
    "id": 106517,
    "name": "Kham Sakae Saeng",
    "latitude": "15.33221000",
    "longitude": "102.17278000",
    "CountryID": 219,
    "StateID": 3497
  },
  {
    "id": 105387,
    "name": "Kham Thale So",
    "latitude": "15.03639000",
    "longitude": "101.93170000",
    "CountryID": 219,
    "StateID": 3497
  },
  {
    "id": 106530,
    "name": "Khon Buri",
    "latitude": "14.52541000",
    "longitude": "102.24591000",
    "CountryID": 219,
    "StateID": 3497
  },
  {
    "id": 105422,
    "name": "Khong",
    "latitude": "15.43311000",
    "longitude": "102.29617000",
    "CountryID": 219,
    "StateID": 3497
  },
  {
    "id": 105476,
    "name": "Lam Thamen Chai",
    "latitude": "15.28424000",
    "longitude": "102.90723000",
    "CountryID": 219,
    "StateID": 3497
  },
  {
    "id": 105556,
    "name": "Mueang Nakhon Ratchasima",
    "latitude": "14.95678000",
    "longitude": "102.08933000",
    "CountryID": 219,
    "StateID": 3497
  },
  {
    "id": 105605,
    "name": "Mueang Yang",
    "latitude": "15.43842000",
    "longitude": "102.89331000",
    "CountryID": 219,
    "StateID": 3497
  },
  {
    "id": 106583,
    "name": "Nakhon Ratchasima",
    "latitude": "14.97066000",
    "longitude": "102.10196000",
    "CountryID": 219,
    "StateID": 3497
  },
  {
    "id": 105648,
    "name": "Non Daeng",
    "latitude": "15.44479000",
    "longitude": "102.54565000",
    "CountryID": 219,
    "StateID": 3497
  },
  {
    "id": 106592,
    "name": "Non Sung",
    "latitude": "15.18014000",
    "longitude": "102.25695000",
    "CountryID": 219,
    "StateID": 3497
  },
  {
    "id": 106593,
    "name": "Non Thai",
    "latitude": "15.19580000",
    "longitude": "102.07145000",
    "CountryID": 219,
    "StateID": 3497
  },
  {
    "id": 105659,
    "name": "Nong Bun Mak",
    "latitude": "14.71295000",
    "longitude": "102.37447000",
    "CountryID": 219,
    "StateID": 3497
  },
  {
    "id": 106609,
    "name": "Pak Chong",
    "latitude": "14.70802000",
    "longitude": "101.41614000",
    "CountryID": 219,
    "StateID": 3497
  },
  {
    "id": 106612,
    "name": "Pak Thong Chai",
    "latitude": "14.72260000",
    "longitude": "102.02512000",
    "CountryID": 219,
    "StateID": 3497
  },
  {
    "id": 106635,
    "name": "Phimai",
    "latitude": "15.22324000",
    "longitude": "102.49473000",
    "CountryID": 219,
    "StateID": 3497
  },
  {
    "id": 105765,
    "name": "Phra Thong Kham",
    "latitude": "15.35114000",
    "longitude": "101.99355000",
    "CountryID": 219,
    "StateID": 3497
  },
  {
    "id": 105799,
    "name": "Prathai",
    "latitude": "15.55911000",
    "longitude": "102.69786000",
    "CountryID": 219,
    "StateID": 3497
  },
  {
    "id": 106232,
    "name": "Sida",
    "latitude": "15.56406000",
    "longitude": "102.55823000",
    "CountryID": 219,
    "StateID": 3497
  },
  {
    "id": 106234,
    "name": "Sikhio",
    "latitude": "14.94275000",
    "longitude": "101.60672000",
    "CountryID": 219,
    "StateID": 3497
  },
  {
    "id": 106235,
    "name": "Sikhiu",
    "latitude": "14.89944000",
    "longitude": "101.70833000",
    "CountryID": 219,
    "StateID": 3497
  },
  {
    "id": 106703,
    "name": "Soeng Sang",
    "latitude": "14.42642000",
    "longitude": "102.46058000",
    "CountryID": 219,
    "StateID": 3497
  },
  {
    "id": 106708,
    "name": "Sung Noen",
    "latitude": "14.89920000",
    "longitude": "101.82075000",
    "CountryID": 219,
    "StateID": 3497
  },
  {
    "id": 106306,
    "name": "Thepharak",
    "latitude": "15.28639000",
    "longitude": "101.50373000",
    "CountryID": 219,
    "StateID": 3497
  },
  {
    "id": 106339,
    "name": "Wang Nam Khiao",
    "latitude": "14.44786000",
    "longitude": "101.85533000",
    "CountryID": 219,
    "StateID": 3497
  },
  {
    "id": 105374,
    "name": "Amphoe Kao Liao",
    "latitude": "15.88778000",
    "longitude": "100.09647000",
    "CountryID": 219,
    "StateID": 3492
  },
  {
    "id": 105489,
    "name": "Amphoe Lat Yao",
    "latitude": "15.77526000",
    "longitude": "99.80046000",
    "CountryID": 219,
    "StateID": 3492
  },
  {
    "id": 105658,
    "name": "Amphoe Nong Bua",
    "latitude": "15.86591000",
    "longitude": "100.62860000",
    "CountryID": 219,
    "StateID": 3492
  },
  {
    "id": 105718,
    "name": "Amphoe Phai Sali",
    "latitude": "15.58723000",
    "longitude": "100.68530000",
    "CountryID": 219,
    "StateID": 3492
  },
  {
    "id": 105736,
    "name": "Amphoe Phayuha Khiri",
    "latitude": "15.50783000",
    "longitude": "100.21226000",
    "CountryID": 219,
    "StateID": 3492
  },
  {
    "id": 106263,
    "name": "Amphoe Takhli",
    "latitude": "15.25928000",
    "longitude": "100.38058000",
    "CountryID": 219,
    "StateID": 3492
  },
  {
    "id": 105248,
    "name": "Banphot Phisai",
    "latitude": "15.99714000",
    "longitude": "99.99409000",
    "CountryID": 219,
    "StateID": 3492
  },
  {
    "id": 105312,
    "name": "Chum Ta Bong",
    "latitude": "15.68311000",
    "longitude": "99.56908000",
    "CountryID": 219,
    "StateID": 3492
  },
  {
    "id": 105314,
    "name": "Chumsaeng",
    "latitude": "15.84745000",
    "longitude": "100.28971000",
    "CountryID": 219,
    "StateID": 3492
  },
  {
    "id": 106514,
    "name": "Kao Liao",
    "latitude": "15.85053000",
    "longitude": "100.07914000",
    "CountryID": 219,
    "StateID": 3492
  },
  {
    "id": 105456,
    "name": "Krok Phra",
    "latitude": "15.58638000",
    "longitude": "100.01815000",
    "CountryID": 219,
    "StateID": 3492
  },
  {
    "id": 106556,
    "name": "Lat Yao",
    "latitude": "15.75100000",
    "longitude": "99.78925000",
    "CountryID": 219,
    "StateID": 3492
  },
  {
    "id": 105508,
    "name": "Mae Poen",
    "latitude": "15.70656000",
    "longitude": "99.34827000",
    "CountryID": 219,
    "StateID": 3492
  },
  {
    "id": 105519,
    "name": "Mae Wong",
    "latitude": "15.83538000",
    "longitude": "99.40785000",
    "CountryID": 219,
    "StateID": 3492
  },
  {
    "id": 105557,
    "name": "Mueang Nakhon Sawan",
    "latitude": "15.71991000",
    "longitude": "100.10067000",
    "CountryID": 219,
    "StateID": 3492
  },
  {
    "id": 106584,
    "name": "Nakhon Sawan",
    "latitude": "15.70472000",
    "longitude": "100.13717000",
    "CountryID": 219,
    "StateID": 3492
  },
  {
    "id": 106594,
    "name": "Nong Bua",
    "latitude": "15.86458000",
    "longitude": "100.58581000",
    "CountryID": 219,
    "StateID": 3492
  },
  {
    "id": 106618,
    "name": "Phai Sali",
    "latitude": "15.60003000",
    "longitude": "100.64937000",
    "CountryID": 219,
    "StateID": 3492
  },
  {
    "id": 106630,
    "name": "Phayuha Khiri",
    "latitude": "15.45525000",
    "longitude": "100.13533000",
    "CountryID": 219,
    "StateID": 3492
  },
  {
    "id": 106262,
    "name": "Tak Fa",
    "latitude": "15.38249000",
    "longitude": "100.46693000",
    "CountryID": 219,
    "StateID": 3492
  },
  {
    "id": 106715,
    "name": "Takhli",
    "latitude": "15.26336000",
    "longitude": "100.34378000",
    "CountryID": 219,
    "StateID": 3492
  },
  {
    "id": 106287,
    "name": "Tha Tako",
    "latitude": "15.65434000",
    "longitude": "100.45939000",
    "CountryID": 219,
    "StateID": 3492
  },
  {
    "id": 105290,
    "name": "Amphoe Chawang",
    "latitude": "8.46322000",
    "longitude": "99.51107000",
    "CountryID": 219,
    "StateID": 3520
  },
  {
    "id": 105704,
    "name": "Amphoe Pak Phanang",
    "latitude": "8.30711000",
    "longitude": "100.17361000",
    "CountryID": 219,
    "StateID": 3520
  },
  {
    "id": 105812,
    "name": "Amphoe Ron Phibun",
    "latitude": "8.17997000",
    "longitude": "99.89248000",
    "CountryID": 219,
    "StateID": 3520
  },
  {
    "id": 106296,
    "name": "Amphoe Tham Phannara",
    "latitude": "8.45822000",
    "longitude": "99.37718000",
    "CountryID": 219,
    "StateID": 3520
  },
  {
    "id": 106317,
    "name": "Amphoe Thung Song",
    "latitude": "8.11757000",
    "longitude": "99.66907000",
    "CountryID": 219,
    "StateID": 3520
  },
  {
    "id": 105225,
    "name": "Bang Khan",
    "latitude": "8.01208000",
    "longitude": "99.48449000",
    "CountryID": 219,
    "StateID": 3520
  },
  {
    "id": 105267,
    "name": "Cha-uat",
    "latitude": "7.95645000",
    "longitude": "99.98929000",
    "CountryID": 219,
    "StateID": 3520
  },
  {
    "id": 105278,
    "name": "Chaloem Phra Kiat",
    "latitude": "8.18333000",
    "longitude": "100.05000000",
    "CountryID": 219,
    "StateID": 3520
  },
  {
    "id": 105284,
    "name": "Chang Klang",
    "latitude": "8.35697000",
    "longitude": "99.64592000",
    "CountryID": 219,
    "StateID": 3520
  },
  {
    "id": 106470,
    "name": "Chawang",
    "latitude": "8.42614000",
    "longitude": "99.50472000",
    "CountryID": 219,
    "StateID": 3520
  },
  {
    "id": 105291,
    "name": "Chian Yai",
    "latitude": "8.11719000",
    "longitude": "100.15819000",
    "CountryID": 219,
    "StateID": 3520
  },
  {
    "id": 105309,
    "name": "Chulabhorn",
    "latitude": "8.07591000",
    "longitude": "99.85365000",
    "CountryID": 219,
    "StateID": 3520
  },
  {
    "id": 105350,
    "name": "Hua Sai",
    "latitude": "8.01181000",
    "longitude": "100.24614000",
    "CountryID": 219,
    "StateID": 3520
  },
  {
    "id": 105389,
    "name": "Khanom",
    "latitude": "9.18317000",
    "longitude": "99.80192000",
    "CountryID": 219,
    "StateID": 3520
  },
  {
    "id": 105482,
    "name": "Lan Saka",
    "latitude": "8.37799000",
    "longitude": "99.78328000",
    "CountryID": 219,
    "StateID": 3520
  },
  {
    "id": 105558,
    "name": "Mueang Nakhon Si Thammarat",
    "latitude": "8.44013000",
    "longitude": "99.98537000",
    "CountryID": 219,
    "StateID": 3520
  },
  {
    "id": 105607,
    "name": "Na Bon",
    "latitude": "8.26976000",
    "longitude": "99.55694000",
    "CountryID": 219,
    "StateID": 3520
  },
  {
    "id": 106585,
    "name": "Nakhon Si Thammarat",
    "latitude": "8.43333000",
    "longitude": "99.96667000",
    "CountryID": 219,
    "StateID": 3520
  },
  {
    "id": 105688,
    "name": "Nopphitam",
    "latitude": "8.75166000",
    "longitude": "99.67087000",
    "CountryID": 219,
    "StateID": 3520
  },
  {
    "id": 106611,
    "name": "Pak Phanang",
    "latitude": "8.35109000",
    "longitude": "100.20195000",
    "CountryID": 219,
    "StateID": 3520
  },
  {
    "id": 105742,
    "name": "Phipun",
    "latitude": "8.60289000",
    "longitude": "99.59528000",
    "CountryID": 219,
    "StateID": 3520
  },
  {
    "id": 105761,
    "name": "Phra Phrom",
    "latitude": "8.32652000",
    "longitude": "99.93240000",
    "CountryID": 219,
    "StateID": 3520
  },
  {
    "id": 105772,
    "name": "Phrom Khiri",
    "latitude": "8.54242000",
    "longitude": "99.79229000",
    "CountryID": 219,
    "StateID": 3520
  },
  {
    "id": 106669,
    "name": "Ron Phibun",
    "latitude": "8.17911000",
    "longitude": "99.85425000",
    "CountryID": 219,
    "StateID": 3520
  },
  {
    "id": 106231,
    "name": "Sichon",
    "latitude": "8.94981000",
    "longitude": "99.81322000",
    "CountryID": 219,
    "StateID": 3520
  },
  {
    "id": 106284,
    "name": "Tha Sala",
    "latitude": "8.69367000",
    "longitude": "99.88539000",
    "CountryID": 219,
    "StateID": 3520
  },
  {
    "id": 106726,
    "name": "Tham Phannara",
    "latitude": "8.42045000",
    "longitude": "99.39517000",
    "CountryID": 219,
    "StateID": 3520
  },
  {
    "id": 106733,
    "name": "Thung Song",
    "latitude": "8.16453000",
    "longitude": "99.68039000",
    "CountryID": 219,
    "StateID": 3520
  },
  {
    "id": 106320,
    "name": "Thung Yai",
    "latitude": "8.28708000",
    "longitude": "99.37196000",
    "CountryID": 219,
    "StateID": 3520
  },
  {
    "id": 105297,
    "name": "Amphoe Chiang Klang",
    "latitude": "19.30637000",
    "longitude": "100.87878000",
    "CountryID": 219,
    "StateID": 3530
  },
  {
    "id": 106366,
    "name": "Amphoe Wiang Sa",
    "latitude": "18.55088000",
    "longitude": "100.72754000",
    "CountryID": 219,
    "StateID": 3530
  },
  {
    "id": 105200,
    "name": "Ban Luang",
    "latitude": "18.88375000",
    "longitude": "100.46014000",
    "CountryID": 219,
    "StateID": 3530
  },
  {
    "id": 105251,
    "name": "Bo Kluea",
    "latitude": "19.08994000",
    "longitude": "101.18952000",
    "CountryID": 219,
    "StateID": 3530
  },
  {
    "id": 105276,
    "name": "Chaloem Phra Kiat",
    "latitude": "19.50618000",
    "longitude": "101.14249000",
    "CountryID": 219,
    "StateID": 3530
  },
  {
    "id": 106473,
    "name": "Chiang Klang",
    "latitude": "19.29378000",
    "longitude": "100.86169000",
    "CountryID": 219,
    "StateID": 3530
  },
  {
    "id": 105500,
    "name": "Mae Charim",
    "latitude": "18.71336000",
    "longitude": "101.11011000",
    "CountryID": 219,
    "StateID": 3530
  },
  {
    "id": 105559,
    "name": "Mueang Nan",
    "latitude": "18.89008000",
    "longitude": "100.67472000",
    "CountryID": 219,
    "StateID": 3530
  },
  {
    "id": 105619,
    "name": "Na Muen",
    "latitude": "18.12524000",
    "longitude": "100.60270000",
    "CountryID": 219,
    "StateID": 3530
  },
  {
    "id": 105620,
    "name": "Na Noi",
    "latitude": "18.30269000",
    "longitude": "100.72393000",
    "CountryID": 219,
    "StateID": 3530
  },
  {
    "id": 106588,
    "name": "Nan",
    "latitude": "18.78378000",
    "longitude": "100.77899000",
    "CountryID": 219,
    "StateID": 3530
  },
  {
    "id": 105779,
    "name": "Phu Phiang",
    "latitude": "18.78030000",
    "longitude": "100.87497000",
    "CountryID": 219,
    "StateID": 3530
  },
  {
    "id": 105800,
    "name": "Pua",
    "latitude": "19.16306000",
    "longitude": "101.02796000",
    "CountryID": 219,
    "StateID": 3530
  },
  {
    "id": 106192,
    "name": "Santi Suk",
    "latitude": "18.91190000",
    "longitude": "101.00016000",
    "CountryID": 219,
    "StateID": 3530
  },
  {
    "id": 106246,
    "name": "Song Khwae",
    "latitude": "19.40911000",
    "longitude": "100.66174000",
    "CountryID": 219,
    "StateID": 3530
  },
  {
    "id": 106290,
    "name": "Tha Wang Pha",
    "latitude": "19.13148000",
    "longitude": "100.76117000",
    "CountryID": 219,
    "StateID": 3530
  },
  {
    "id": 106311,
    "name": "Thung Chang",
    "latitude": "19.46342000",
    "longitude": "100.91937000",
    "CountryID": 219,
    "StateID": 3530
  },
  {
    "id": 105802,
    "name": "Amphoe Ra-ngae",
    "latitude": "6.25504000",
    "longitude": "101.70496000",
    "CountryID": 219,
    "StateID": 3553
  },
  {
    "id": 106251,
    "name": "Amphoe Su-ngai Kolok",
    "latitude": "6.07674000",
    "longitude": "101.99818000",
    "CountryID": 219,
    "StateID": 3553
  },
  {
    "id": 106261,
    "name": "Amphoe Tak Bai",
    "latitude": "6.23748000",
    "longitude": "102.00238000",
    "CountryID": 219,
    "StateID": 3553
  },
  {
    "id": 105185,
    "name": "Ba Cho",
    "latitude": "6.54591000",
    "longitude": "101.64923000",
    "CountryID": 219,
    "StateID": 3553
  },
  {
    "id": 106414,
    "name": "Ban Su-ngai Pa Di",
    "latitude": "6.07239000",
    "longitude": "101.87172000",
    "CountryID": 219,
    "StateID": 3553
  },
  {
    "id": 105283,
    "name": "Chanae",
    "latitude": "6.04591000",
    "longitude": "101.61765000",
    "CountryID": 219,
    "StateID": 3553
  },
  {
    "id": 105301,
    "name": "Cho-airong",
    "latitude": "6.23011000",
    "longitude": "101.84721000",
    "CountryID": 219,
    "StateID": 3553
  },
  {
    "id": 105560,
    "name": "Mueang Narathiwat",
    "latitude": "6.39391000",
    "longitude": "101.81316000",
    "CountryID": 219,
    "StateID": 3553
  },
  {
    "id": 106590,
    "name": "Narathiwat",
    "latitude": "6.42639000",
    "longitude": "101.82308000",
    "CountryID": 219,
    "StateID": 3553
  },
  {
    "id": 106660,
    "name": "Ra-ngae",
    "latitude": "6.29678000",
    "longitude": "101.72844000",
    "CountryID": 219,
    "StateID": 3553
  },
  {
    "id": 105815,
    "name": "Rueso",
    "latitude": "6.37450000",
    "longitude": "101.51491000",
    "CountryID": 219,
    "StateID": 3553
  },
  {
    "id": 106222,
    "name": "Si Sakhon",
    "latitude": "6.19360000",
    "longitude": "101.51257000",
    "CountryID": 219,
    "StateID": 3553
  },
  {
    "id": 106705,
    "name": "Su-ngai Kolok",
    "latitude": "6.02977000",
    "longitude": "101.96586000",
    "CountryID": 219,
    "StateID": 3553
  },
  {
    "id": 106252,
    "name": "Su-ngai Padi",
    "latitude": "6.10425000",
    "longitude": "101.89333000",
    "CountryID": 219,
    "StateID": 3553
  },
  {
    "id": 106255,
    "name": "Sukhirin",
    "latitude": "5.91513000",
    "longitude": "101.73811000",
    "CountryID": 219,
    "StateID": 3553
  },
  {
    "id": 106714,
    "name": "Tak Bai",
    "latitude": "6.25947000",
    "longitude": "102.05461000",
    "CountryID": 219,
    "StateID": 3553
  },
  {
    "id": 106330,
    "name": "Waeng",
    "latitude": "5.90042000",
    "longitude": "101.86195000",
    "CountryID": 219,
    "StateID": 3553
  },
  {
    "id": 106379,
    "name": "Yi-ngo",
    "latitude": "6.41655000",
    "longitude": "101.70035000",
    "CountryID": 219,
    "StateID": 3553
  },
  {
    "id": 105616,
    "name": "Amphoe Na Klang",
    "latitude": "17.32466000",
    "longitude": "102.21456000",
    "CountryID": 219,
    "StateID": 3480
  },
  {
    "id": 105653,
    "name": "Amphoe Non Sang",
    "latitude": "16.90220000",
    "longitude": "102.53084000",
    "CountryID": 219,
    "StateID": 3480
  },
  {
    "id": 106210,
    "name": "Amphoe Si Bun Rueang",
    "latitude": "16.99775000",
    "longitude": "102.22528000",
    "CountryID": 219,
    "StateID": 3480
  },
  {
    "id": 105561,
    "name": "Mueang Nong Bua Lamphu",
    "latitude": "17.15818000",
    "longitude": "102.39860000",
    "CountryID": 219,
    "StateID": 3480
  },
  {
    "id": 106575,
    "name": "Na Klang",
    "latitude": "17.30720000",
    "longitude": "102.18886000",
    "CountryID": 219,
    "StateID": 3480
  },
  {
    "id": 105626,
    "name": "Na Wang",
    "latitude": "17.34290000",
    "longitude": "102.07157000",
    "CountryID": 219,
    "StateID": 3480
  },
  {
    "id": 106591,
    "name": "Non Sang",
    "latitude": "16.86870000",
    "longitude": "102.56642000",
    "CountryID": 219,
    "StateID": 3480
  },
  {
    "id": 106595,
    "name": "Nong Bua Lamphu",
    "latitude": "17.20406000",
    "longitude": "102.44068000",
    "CountryID": 219,
    "StateID": 3480
  },
  {
    "id": 106697,
    "name": "Si Bun Rueang",
    "latitude": "16.96705000",
    "longitude": "102.27607000",
    "CountryID": 219,
    "StateID": 3480
  },
  {
    "id": 106258,
    "name": "Suwannakhuha",
    "latitude": "17.54605000",
    "longitude": "102.24852000",
    "CountryID": 219,
    "StateID": 3480
  },
  {
    "id": 106189,
    "name": "Amphoe Sangkhom",
    "latitude": "18.05392000",
    "longitude": "102.22677000",
    "CountryID": 219,
    "StateID": 3484
  },
  {
    "id": 106211,
    "name": "Amphoe Si Chiang Mai",
    "latitude": "17.93574000",
    "longitude": "102.50306000",
    "CountryID": 219,
    "StateID": 3484
  },
  {
    "id": 106270,
    "name": "Amphoe Tha Bo",
    "latitude": "17.79499000",
    "longitude": "102.56608000",
    "CountryID": 219,
    "StateID": 3484
  },
  {
    "id": 105341,
    "name": "Fao Rai",
    "latitude": "18.00275000",
    "longitude": "103.29640000",
    "CountryID": 219,
    "StateID": 3484
  },
  {
    "id": 105562,
    "name": "Mueang Nong Khai",
    "latitude": "17.84661000",
    "longitude": "102.78911000",
    "CountryID": 219,
    "StateID": 3484
  },
  {
    "id": 106600,
    "name": "Nong Khai",
    "latitude": "17.87847000",
    "longitude": "102.74200000",
    "CountryID": 219,
    "StateID": 3484
  },
  {
    "id": 105748,
    "name": "Pho Tak",
    "latitude": "17.88819000",
    "longitude": "102.43023000",
    "CountryID": 219,
    "StateID": 3484
  },
  {
    "id": 106640,
    "name": "Phon Charoen",
    "latitude": "18.03333000",
    "longitude": "103.16667000",
    "CountryID": 219,
    "StateID": 3484
  },
  {
    "id": 105757,
    "name": "Phonphisai",
    "latitude": "17.95443000",
    "longitude": "103.12279000",
    "CountryID": 219,
    "StateID": 3484
  },
  {
    "id": 105809,
    "name": "Rattanawapi",
    "latitude": "18.19255000",
    "longitude": "103.23760000",
    "CountryID": 219,
    "StateID": 3484
  },
  {
    "id": 105817,
    "name": "Sa Khrai",
    "latitude": "17.65985000",
    "longitude": "102.70847000",
    "CountryID": 219,
    "StateID": 3484
  },
  {
    "id": 106686,
    "name": "Sangkhom",
    "latitude": "18.06389000",
    "longitude": "102.27364000",
    "CountryID": 219,
    "StateID": 3484
  },
  {
    "id": 106698,
    "name": "Si Chiang Mai",
    "latitude": "17.95639000",
    "longitude": "102.58667000",
    "CountryID": 219,
    "StateID": 3484
  },
  {
    "id": 106718,
    "name": "Tha Bo",
    "latitude": "17.85003000",
    "longitude": "102.58139000",
    "CountryID": 219,
    "StateID": 3484
  },