[
  {
    "id": 1237,
    "name": "Abyan",
    "iso2": "AB",
    "native": "أبين",
    "latitude": "13.78620200",
    "longitude": "46.14176600",
    "type": "governorate",
    "timezone": "Asia/Aden",
    "CountryID": 245
  },
  {
    "id": 5467,
    "name": "Ad Dali'",
    "iso2": "DA",
    "native": "الضالع",
    "latitude": "13.70000000",
    "longitude": "44.73000000",
    "type": "governorate",
    "timezone": "Asia/Aden",
    "CountryID": 245
  },
  {
    "id": 1242,
    "name": "Adan",
    "iso2": "AD",
    "native": "عدن",
    "latitude": "12.83333300",
    "longitude": "44.91666700",
    "type": "governorate",
    "timezone": "Asia/Aden",
    "CountryID": 245
  },
  {
    "id": 1240,
    "name": "Al Bayda'",
    "iso2": "BA",
    "native": "البيضاء",
    "latitude": "14.34166000",
    "longitude": "45.39442200",
    "type": "governorate",
    "timezone": "Asia/Aden",
    "CountryID": 245
  },
  {
    "id": 1241,
    "name": "Al Hudaydah",
    "iso2": "HU",
    "native": "الحديدة",
    "latitude": "15.11593260",
    "longitude": "42.84478500",
    "type": "governorate",
    "timezone": "Asia/Aden",
    "CountryID": 245
  },
  {
    "id": 1243,
    "name": "Al Jawf",
    "iso2": "JA",
    "native": "الجوف",
    "latitude": "16.68973300",
    "longitude": "45.61155600",
    "type": "governorate",
    "timezone": "Asia/Aden",
    "CountryID": 245
  },
  {
    "id": 1251,
    "name": "Al Mahrah",
    "iso2": "MR",
    "native": "المهرة",
    "latitude": "17.00000000",
    "longitude": "51.50000000",
    "type": "governorate",
    "timezone": "Asia/Aden",
    "CountryID": 245
  },
  {
    "id": 1235,
    "name": "Al Mahwit",
    "iso2": "MW",
    "native": "المحويت",
    "latitude": "15.38715100",
    "longitude": "43.56629600",
    "type": "governorate",
    "timezone": "Asia/Aden",
    "CountryID": 245
  },
  {
    "id": 1232,
    "name": "Amanat Al Asimah",
    "iso2": "SA",
    "native": "أمانة العاصمة",
    "latitude": "15.35000000",
    "longitude": "44.20000000",
    "type": "municipality",
    "timezone": "Asia/Aden",
    "CountryID": 245
  },
  {
    "id": 1250,
    "name": "Amran",
    "iso2": "AM",
    "native": "عمران",
    "latitude": "16.23021800",
    "longitude": "43.90983400",
    "type": "governorate",
    "timezone": "Asia/Aden",
    "CountryID": 245
  },
  {
    "id": 1246,
    "name": "Dhamar",
    "iso2": "DH",
    "native": "ذمار",
    "latitude": "14.73842680",
    "longitude": "44.27095970",
    "type": "governorate",
    "timezone": "Asia/Aden",
    "CountryID": 245
  },
  {
    "id": 1238,
    "name": "Hadhramaut",
    "iso2": "HD",
    "native": "حضرموت",
    "latitude": "16.73230220",
    "longitude": "48.60849670",
    "type": "governorate",
    "timezone": "Asia/Aden",
    "CountryID": 245
  },
  {
    "id": 1244,
    "name": "Hajjah",
    "iso2": "HJ",
    "native": "حجة",
    "latitude": "16.00000000",
    "longitude": "43.25000000",
    "type": "governorate",
    "timezone": "Asia/Aden",
    "CountryID": 245
  },
  {
    "id": 1233,
    "name": "Ibb",
    "iso2": "IB",
    "native": "إب",
    "latitude": "14.14192910",
    "longitude": "44.13898490",
    "type": "governorate",
    "timezone": "Asia/Aden",
    "CountryID": 245
  },
  {
    "id": 1245,
    "name": "Lahij",
    "iso2": "LA",
    "native": "لحج",
    "latitude": "13.05778210",
    "longitude": "44.88361350",
    "type": "governorate",
    "timezone": "Asia/Aden",
    "CountryID": 245
  },
  {
    "id": 1234,
    "name": "Ma'rib",
    "iso2": "MA",
    "native": "مأرب",
    "latitude": "15.45787880",
    "longitude": "45.32302420",
    "type": "governorate",
    "timezone": "Asia/Aden",
    "CountryID": 245
  },
  {
    "id": 1248,
    "name": "Raymah",
    "iso2": "RA",
    "native": "ريمة",
    "latitude": "14.68755520",
    "longitude": "43.66482640",
    "type": "governorate",
    "timezone": "Asia/Aden",
    "CountryID": 245
  },
  {
    "id": 1249,
    "name": "Saada",
    "iso2": "SD",
    "native": "صعدة",
    "latitude": "16.91733200",
    "longitude": "43.75999700",
    "type": "governorate",
    "timezone": "Asia/Aden",
    "CountryID": 245
  },
  {
    "id": 1236,
    "name": "Sana'a",
    "iso2": "SN",
    "native": "صنعاء",
    "latitude": "15.26069100",
    "longitude": "44.42489500",
    "type": "governorate",
    "timezone": "Asia/Aden",
    "CountryID": 245
  },
  {
    "id": 1247,
    "name": "Shabwah",
    "iso2": "SH",
    "native": "شبوة",
    "latitude": "14.92741090",
    "longitude": "46.60849670",
    "type": "governorate",
    "timezone": "Asia/Aden",
    "CountryID": 245
  },
  {
    "id": 1239,
    "name": "Socotra",
    "iso2": "SU",
    "native": "سقطرى",
    "latitude": "12.50000000",
    "longitude": "53.83333300",
    "type": "governorate",
    "timezone": "Asia/Aden",
    "CountryID": 245
  },
  {
    "id": 1231,
    "name": "Ta'izz",
    "iso2": "TA",
    "native": "تعز",
    "latitude": "13.57758860",
    "longitude": "44.01779890",
    "type": "governorate",
    "timezone": "Asia/Aden",
    "CountryID": 245
  }
]