[
  {
    "id": 153758,
    "name": "Eiði",
    "latitude": "62.27890000",
    "longitude": "-7.01230000",
    "CountryID": 72,
    "StateID": 5229
  },
  {
    "id": 153748,
    "name": "Eystur",
    "latitude": "62.15670000",
    "longitude": "-6.82330000",
    "CountryID": 72,
    "StateID": 5229
  },
  {
    "id": 153752,
    "name": "Fuglafjørður",
    "latitude": "62.21010000",
    "longitude": "-6.81230000",
    "CountryID": 72,
    "StateID": 5229
  },
  {
    "id": 153754,
    "name": "Nes",
    "latitude": "62.09870000",
    "longitude": "-6.76540000",
    "CountryID": 72,
    "StateID": 5229
  },
  {
    "id": 153747,
    "name": "Runavík",
    "latitude": "62.13230000",
    "longitude": "-6.78900000",
    "CountryID": 72,
    "StateID": 5229
  },
  {
    "id": 153757,
    "name": "Sjóvar",
    "latitude": "62.12340000",
    "longitude": "-6.87650000",
    "CountryID": 72,
    "StateID": 5229
  },
  {
    "id": 153763,
    "name": "Hvannasund",
    "latitude": "62.34560000",
    "longitude": "-6.78900000",
    "CountryID": 72,
    "StateID": 5230
  },
  {
    "id": 153746,
    "name": "Klaksvík",
    "latitude": "62.22100000",
    "longitude": "-6.58000000",
    "CountryID": 72,
    "StateID": 5230
  },
  {
    "id": 153767,
    "name": "Kunoy",
    "latitude": "62.34560000",
    "longitude": "-6.89010000",
    "CountryID": 72,
    "StateID": 5230
  },
  {
    "id": 153769,
    "name": "Húsavík",
    "latitude": "61.80964950",
    "longitude": "-6.67949560",
    "CountryID": 72,
    "StateID": 5231
  },
  {
    "id": 153761,
    "name": "Sandur",
    "latitude": "61.83481550",
    "longitude": "-6.81758260",
    "CountryID": 72,
    "StateID": 5231
  },
  {
    "id": 153768,
    "name": "Skálavík",
    "latitude": "61.83026760",
    "longitude": "-6.66403200",
    "CountryID": 72,
    "StateID": 5231
  },
  {
    "id": 153762,
    "name": "Skopun",
    "latitude": "62.01230000",
    "longitude": "-6.98760000",
    "CountryID": 72,
    "StateID": 5231
  },
  {
    "id": 153772,
    "name": "Skúvoy",
    "latitude": "61.76644320",
    "longitude": "-6.82696200",
    "CountryID": 72,
    "StateID": 5231
  },
  {
    "id": 153760,
    "name": "Kvívík",
    "latitude": "62.14560000",
    "longitude": "-7.20980000",
    "CountryID": 72,
    "StateID": 5232
  },
  {
    "id": 153750,
    "name": "Sunda",
    "latitude": "62.13450000",
    "longitude": "-7.09870000",
    "CountryID": 72,
    "StateID": 5232
  },
  {
    "id": 153745,
    "name": "Tórshavn",
    "latitude": "62.00000000",
    "longitude": "-7.00000000",
    "CountryID": 72,
    "StateID": 5232
  },
  {
    "id": 153755,
    "name": "Vestmanna",
    "latitude": "62.15670000",
    "longitude": "-7.23450000",
    "CountryID": 72,
    "StateID": 5232
  },
  {
    "id": 153771,
    "name": "Fámjin",
    "latitude": "61.52468660",
    "longitude": "-6.87927050",
    "CountryID": 72,
    "StateID": 5233
  },
  {
    "id": 153770,
    "name": "Hov",
    "latitude": "61.50693570",
    "longitude": "-6.75574220",
    "CountryID": 72,
    "StateID": 5233
  },
  {
    "id": 153759,
    "name": "Hvalba",
    "latitude": "61.59870000",
    "longitude": "-6.98760000",
    "CountryID": 72,
    "StateID": 5233
  },
  {
    "id": 153766,
    "name": "Porkeri",
    "latitude": "61.54320000",
    "longitude": "-6.98760000",
    "CountryID": 72,
    "StateID": 5233
  },
  {
    "id": 153764,
    "name": "Sumba",
    "latitude": "61.40332670",
    "longitude": "-6.71173610",
    "CountryID": 72,
    "StateID": 5233
  },
  {
    "id": 153751,
    "name": "Tvøroyri",
    "latitude": "61.56230000",
    "longitude": "-6.77800000",
    "CountryID": 72,
    "StateID": 5233
  },
  {
    "id": 153753,
    "name": "Vágur",
    "latitude": "61.47890000",
    "longitude": "-6.81010000",
    "CountryID": 72,
    "StateID": 5233
  },
  {
    "id": 153756,
    "name": "Sørvágur",
    "latitude": "62.06540000",
    "longitude": "-7.37870000",
    "CountryID": 72,
    "StateID": 5234
  },
  {
    "id": 153749,
    "name": "Vágar",
    "latitude": "62.06670000",
    "longitude": "-7.10000000",
    "CountryID": 72,
    "StateID": 5234
  }
]