[
  {
    "id": 4689,
    "name": "Autonomous Republic of Crimea",
    "iso2": "43",
    "native": "Автономна Республіка Криму",
    "latitude": "45.68569520",
    "longitude": "33.93294110",
    "type": "republic",
    "timezone": "Europe/Kiev",
    "CountryID": 230
  },
  {
    "id": 4680,
    "name": "Cherkaska",
    "iso2": "71",
    "native": "Черкаска",
    "latitude": "48.92509700",
    "longitude": "37.37598320",
    "type": "region",
    "timezone": "Europe/Kiev",
    "CountryID": 230
  },
  {
    "id": 4692,
    "name": "Chernihivska",
    "iso2": "74",
    "native": "Chernihivska",
    "latitude": "50.45989030",
    "longitude": "30.63031190",
    "type": "region",
    "timezone": "Europe/Kiev",
    "CountryID": 230
  },
  {
    "id": 4678,
    "name": "Chernivetska",
    "iso2": "77",
    "native": "Chernivetska",
    "latitude": "49.83728730",
    "longitude": "24.00078660",
    "type": "region",
    "timezone": "Europe/Kiev",
    "CountryID": 230
  },
  {
    "id": 4675,
    "name": "Dnipropetrovska",
    "iso2": "12",
    "native": "Дніпропетровська",
    "latitude": "48.66258900",
    "longitude": "34.95017150",
    "type": "region",
    "timezone": "Europe/Kiev",
    "CountryID": 230
  },
  {
    "id": 4691,
    "name": "Donetska",
    "iso2": "14",
    "native": "Donetska",
    "latitude": "50.42561380",
    "longitude": "30.45640970",
    "type": "region",
    "timezone": "Europe/Kiev",
    "CountryID": 230
  },
  {
    "id": 4682,
    "name": "Ivano-Frankivska",
    "iso2": "26",
    "native": "Ivano-Frankivska",
    "latitude": "48.86722170",
    "longitude": "24.70490000",
    "type": "region",
    "timezone": "Europe/Kiev",
    "CountryID": 230
  },
  {
    "id": 4686,
    "name": "Kharkivska",
    "iso2": "63",
    "native": "Kharkivska",
    "latitude": "49.82995820",
    "longitude": "36.37889570",
    "type": "region",
    "timezone": "Europe/Kiev",
    "CountryID": 230
  },
  {
    "id": 4684,
    "name": "Khersonska",
    "iso2": "65",
    "native": "Херсонська",
    "latitude": "46.63541700",
    "longitude": "32.61686700",
    "type": "region",
    "timezone": "Europe/Kiev",
    "CountryID": 230
  },
  {
    "id": 4681,
    "name": "Khmelnytska",
    "iso2": "68",
    "native": "Кхмельняцька",
    "latitude": "50.46331920",
    "longitude": "30.38310660",
    "type": "region",
    "timezone": "Europe/Kiev",
    "CountryID": 230
  },
  {
    "id": 4677,
    "name": "Kirovohradska",
    "iso2": "35",
    "native": "Kirovohradska",
    "latitude": "48.19167740",
    "longitude": "31.69029530",
    "type": "region",
    "timezone": "Europe/Kiev",
    "CountryID": 230
  },
  {
    "id": 4676,
    "name": "Kyiv",
    "iso2": "30",
    "native": "Києв",
    "latitude": "50.45010000",
    "longitude": "30.52340000",
    "type": "city",
    "timezone": "Europe/Kiev",
    "CountryID": 230
  },
  {
    "id": 4671,
    "name": "Kyivska",
    "iso2": "32",
    "native": "Київська",
    "latitude": "50.17859500",
    "longitude": "30.49248840",
    "type": "region",
    "timezone": "Europe/Kiev",
    "CountryID": 230
  },
  {
    "id": 4673,
    "name": "Luhanska",
    "iso2": "09",
    "native": "Luhanska",
    "latitude": "48.57404100",
    "longitude": "39.30781500",
    "type": "region",
    "timezone": "Europe/Kiev",
    "CountryID": 230
  },
  {
    "id": 4672,
    "name": "Lvivska",
    "iso2": "46",
    "native": "Lvivska",
    "latitude": "49.65122340",
    "longitude": "23.82669480",
    "type": "region",
    "timezone": "Europe/Kiev",
    "CountryID": 230
  },
  {
    "id": 4679,
    "name": "Mykolaivska",
    "iso2": "48",
    "native": "Mykolaivska",
    "latitude": "47.05606180",
    "longitude": "31.95666140",
    "type": "region",
    "timezone": "Europe/Kiev",
    "CountryID": 230
  },
  {
    "id": 4688,
    "name": "Odeska",
    "iso2": "51",
    "native": "Odeska",
    "latitude": "46.11472260",
    "longitude": "29.95671930",
    "type": "region",
    "timezone": "Europe/Kiev",
    "CountryID": 230
  },
  {
    "id": 5071,
    "name": "Poltavska",
    "iso2": "53",
    "native": "Poltavska",
    "latitude": "49.86078090",
    "longitude": "33.74987870",
    "type": "region",
    "timezone": "Europe/Kiev",
    "CountryID": 230
  },
  {
    "id": 4683,
    "name": "Rivnenska",
    "iso2": "56",
    "native": "Рівненська",
    "latitude": "50.59736670",
    "longitude": "26.26467460",
    "type": "region",
    "timezone": "Europe/Kiev",
    "CountryID": 230
  },
  {
    "id": 1912,
    "name": "Sevastopol",
    "iso2": "40",
    "native": "Севастополь",
    "latitude": "44.60544340",
    "longitude": "33.52208420",
    "type": "city",
    "timezone": "Europe/Kiev",
    "CountryID": 230
  },
  {
    "id": 4685,
    "name": "Sumska",
    "iso2": "59",
    "native": "Підозра",
    "latitude": "50.76965180",
    "longitude": "34.32893050",
    "type": "region",
    "timezone": "Europe/Kiev",
    "CountryID": 230
  },
  {
    "id": 4674,
    "name": "Ternopilska",
    "iso2": "61",
    "native": "Ternopilska",
    "latitude": "49.64092890",
    "longitude": "25.49427240",
    "type": "region",
    "timezone": "Europe/Kiev",
    "CountryID": 230
  },
  {
    "id": 4669,
    "name": "Vinnytska",
    "iso2": "05",
    "native": "Вінникка",
    "latitude": "50.41958930",
    "longitude": "30.44809460",
    "type": "region",
    "timezone": "Europe/Kiev",
    "CountryID": 230
  },
  {
    "id": 4690,
    "name": "Volynska",
    "iso2": "07",
    "native": "Волонська",
    "latitude": "51.54511670",
    "longitude": "24.66278930",
    "type": "region",
    "timezone": "Europe/Kiev",
    "CountryID": 230
  },
  {
    "id": 4670,
    "name": "Zakarpatska",
    "iso2": "21",
    "native": "Закарпака",
    "latitude": "48.29536640",
    "longitude": "23.44660920",
    "type": "region",
    "timezone": "Europe/Kiev",
    "CountryID": 230
  },
  {
    "id": 4687,
    "name": "Zaporizka",
    "iso2": "23",
    "native": "Zaporizka",
    "latitude": "47.85355860",
    "longitude": "35.16998770",
    "type": "region",
    "timezone": "Europe/Kiev",
    "CountryID": 230
  },
  {
    "id": 4668,
    "name": "Zhytomyrska",
    "iso2": "18",
    "native": "Чжітоміка",
    "latitude": "50.45611520",
    "longitude": "30.36588290",
    "type": "region",
    "timezone": "Europe/Kiev",
    "CountryID": 230
  }
]