[
  {
    "id": 5736,
    "name": "Alutaguse",
    "iso2": "130",
    "native": "Alutaguse",
    "latitude": "59.11670000",
    "longitude": "27.45000000",
    "type": "rural municipality",
    "timezone": "Europe/Tallinn",
    "CountryID": 69
  },
  {
    "id": 5737,
    "name": "Anija",
    "iso2": "141",
    "native": "Anija",
    "latitude": "59.31670000",
    "longitude": "25.36670000",
    "type": "rural municipality",
    "timezone": "Europe/Tallinn",
    "CountryID": 69
  },
  {
    "id": 5738,
    "name": "Antsla",
    "iso2": "142",
    "native": "Antsla",
    "latitude": "57.83330000",
    "longitude": "26.53330000",
    "type": "rural municipality",
    "timezone": "Europe/Tallinn",
    "CountryID": 69
  },
  {
    "id": 5739,
    "name": "Elva",
    "iso2": "171",
    "native": "Elva",
    "latitude": "58.22500000",
    "longitude": "26.41690000",
    "type": "rural municipality",
    "timezone": "Europe/Tallinn",
    "CountryID": 69
  },
  {
    "id": 5743,
    "name": "Häädemeeste",
    "iso2": "214",
    "native": "Häädemeeste",
    "latitude": "58.06670000",
    "longitude": "24.48330000",
    "type": "rural municipality",
    "timezone": "Europe/Tallinn",
    "CountryID": 69
  },
  {
    "id": 5800,
    "name": "Haapsalu",
    "iso2": "184",
    "native": "Haapsalu",
    "latitude": "58.94330000",
    "longitude": "23.54190000",
    "type": "urban municipality",
    "timezone": "Europe/Tallinn",
    "CountryID": 69
  },
  {
    "id": 5740,
    "name": "Haljala",
    "iso2": "191",
    "native": "Haljala",
    "latitude": "59.45000000",
    "longitude": "26.31670000",
    "type": "rural municipality",
    "timezone": "Europe/Tallinn",
    "CountryID": 69
  },
  {
    "id": 3567,
    "name": "Harju",
    "iso2": "37",
    "native": "Harju",
    "latitude": "58.95299790",
    "longitude": "22.89810630",
    "type": "county",
    "timezone": "Europe/Tallinn",
    "CountryID": 69
  },
  {
    "id": 5741,
    "name": "Harku",
    "iso2": "198",
    "native": "Harku",
    "latitude": "59.39030000",
    "longitude": "24.56970000",
    "type": "rural municipality",
    "timezone": "Europe/Tallinn",
    "CountryID": 69
  },
  {
    "id": 3555,
    "name": "Hiiu",
    "iso2": "39",
    "native": "Hiiu",
    "latitude": "59.38302360",
    "longitude": "24.67038480",
    "type": "county",
    "timezone": "Europe/Tallinn",
    "CountryID": 69
  },
  {
    "id": 5742,
    "name": "Hiiumaa",
    "iso2": "205",
    "native": "Hiiumaa",
    "latitude": "58.91670000",
    "longitude": "22.60000000",
    "type": "rural municipality",
    "timezone": "Europe/Tallinn",
    "CountryID": 69
  },
  {
    "id": 3569,
    "name": "Ida-Viru",
    "iso2": "45",
    "native": "Ida-Viru",
    "latitude": "59.21980300",
    "longitude": "27.39051620",
    "type": "county",
    "timezone": "Europe/Tallinn",
    "CountryID": 69
  },
  {
    "id": 3566,
    "name": "Järva",
    "iso2": "52",
    "native": "Järva",
    "latitude": "58.41333570",
    "longitude": "24.64773500",
    "type": "county",
    "timezone": "Europe/Tallinn",
    "CountryID": 69
  },
  {
    "id": 5747,
    "name": "Järva",
    "iso2": "255",
    "native": "Järva",
    "latitude": "59.00000000",
    "longitude": "25.86670000",
    "type": "rural municipality",
    "timezone": "Europe/Tallinn",
    "CountryID": 69
  },
  {
    "id": 5744,
    "name": "Joelähtme",
    "iso2": "245",
    "native": "Joelähtme",
    "latitude": "59.46670000",
    "longitude": "25.10000000",
    "type": "rural municipality",
    "timezone": "Europe/Tallinn",
    "CountryID": 69
  },
  {
    "id": 3565,
    "name": "Jõgeva",
    "iso2": "50",
    "native": "Jõgeva",
    "latitude": "58.74410590",
    "longitude": "26.38724440",
    "type": "county",
    "timezone": "Europe/Tallinn",
    "CountryID": 69
  },
  {
    "id": 5745,
    "name": "Jõgeva",
    "iso2": "247",
    "native": "Jõgeva",
    "latitude": "58.75000000",
    "longitude": "26.38330000",
    "type": "rural municipality",
    "timezone": "Europe/Tallinn",
    "CountryID": 69
  },
  {
    "id": 5746,
    "name": "Jõhvi",
    "iso2": "251",
    "native": "Jõhvi",
    "latitude": "59.35830000",
    "longitude": "27.42330000",
    "type": "rural municipality",
    "timezone": "Europe/Tallinn",
    "CountryID": 69
  },
  {
    "id": 5748,
    "name": "Kadrina",
    "iso2": "272",
    "native": "Kadrina",
    "latitude": "59.33330000",
    "longitude": "26.13330000",
    "type": "rural municipality",
    "timezone": "Europe/Tallinn",
    "CountryID": 69
  },
  {
    "id": 5749,
    "name": "Kambja",
    "iso2": "283",
    "native": "Kambja",
    "latitude": "58.26670000",
    "longitude": "26.68330000",
    "type": "rural municipality",
    "timezone": "Europe/Tallinn",
    "CountryID": 69
  },
  {
    "id": 5750,
    "name": "Kanepi",
    "iso2": "284",
    "native": "Kanepi",
    "latitude": "58.00000000",
    "longitude": "26.90000000",
    "type": "rural municipality",
    "timezone": "Europe/Tallinn",
    "CountryID": 69
  },
  {
    "id": 5751,
    "name": "Kastre",
    "iso2": "291",
    "native": "Kastre",
    "latitude": "58.31670000",
    "longitude": "26.78330000",
    "type": "rural municipality",
    "timezone": "Europe/Tallinn",
    "CountryID": 69
  },
  {
    "id": 5752,
    "name": "Kehtna",
    "iso2": "293",
    "native": "Kehtna",
    "latitude": "58.93330000",
    "longitude": "24.88330000",
    "type": "rural municipality",
    "timezone": "Europe/Tallinn",
    "CountryID": 69
  },
  {
    "id": 5801,
    "name": "Keila",
    "iso2": "296",
    "native": "Keila",
    "latitude": "59.30360000",
    "longitude": "24.42110000",
    "type": "urban municipality",
    "timezone": "Europe/Tallinn",
    "CountryID": 69
  },
  {
    "id": 5753,
    "name": "Kihnu",
    "iso2": "303",
    "native": "Kihnu",
    "latitude": "58.15000000",
    "longitude": "24.00000000",
    "type": "rural municipality",
    "timezone": "Europe/Tallinn",
    "CountryID": 69
  },
  {
    "id": 5754,
    "name": "Kiili",
    "iso2": "305",
    "native": "Kiili",
    "latitude": "59.30000000",
    "longitude": "24.86670000",
    "type": "rural municipality",
    "timezone": "Europe/Tallinn",
    "CountryID": 69
  },
  {
    "id": 5755,
    "name": "Kohila",
    "iso2": "317",
    "native": "Kohila",
    "latitude": "59.16670000",
    "longitude": "24.76670000",
    "type": "rural municipality",
    "timezone": "Europe/Tallinn",
    "CountryID": 69
  },
  {
    "id": 5802,
    "name": "Kohtla-Järve",
    "iso2": "321",
    "native": "Kohtla-Järve",
    "latitude": "59.39830000",
    "longitude": "27.27310000",
    "type": "urban municipality",
    "timezone": "Europe/Tallinn",
    "CountryID": 69
  },
  {
    "id": 5756,
    "name": "Kose",
    "iso2": "338",
    "native": "Kose",
    "latitude": "59.18330000",
    "longitude": "25.16670000",
    "type": "rural municipality",
    "timezone": "Europe/Tallinn",
    "CountryID": 69
  },
  {
    "id": 5757,
    "name": "Kuusalu",
    "iso2": "353",
    "native": "Kuusalu",
    "latitude": "59.43330000",
    "longitude": "25.45000000",
    "type": "rural municipality",
    "timezone": "Europe/Tallinn",
    "CountryID": 69
  },
  {
    "id": 3568,
    "name": "Lääne",
    "iso2": "56",
    "native": "Lääne",
    "latitude": "58.67412400",
    "longitude": "25.81061020",
    "type": "county",
    "timezone": "Europe/Tallinn",
    "CountryID": 69
  },
  {
    "id": 5758,
    "name": "Lääne-Harju",
    "iso2": "430",
    "native": "Lääne-Harju",
    "latitude": "59.38330000",
    "longitude": "24.18330000",
    "type": "rural municipality",
    "timezone": "Europe/Tallinn",
    "CountryID": 69
  },
  {
    "id": 5761,
    "name": "Lääne-Nigula",
    "iso2": "441",
    "native": "Lääne-Nigula",
    "latitude": "58.86670000",
    "longitude": "23.78330000",
    "type": "rural municipality",
    "timezone": "Europe/Tallinn",
    "CountryID": 69
  },
  {
    "id": 3564,
    "name": "Lääne-Viru",
    "iso2": "60",
    "native": "Lääne-Viru",
    "latitude": "59.40756660",
    "longitude": "26.30998700",
    "type": "county",
    "timezone": "Europe/Tallinn",
    "CountryID": 69
  },
  {
    "id": 5759,
    "name": "Lääneranna",
    "iso2": "431",
    "native": "Lääneranna",
    "latitude": "58.53330000",
    "longitude": "24.10000000",
    "type": "rural municipality",
    "timezone": "Europe/Tallinn",
    "CountryID": 69
  },
  {
    "id": 5803,
    "name": "Loksa",
    "iso2": "424",
    "native": "Loksa",
    "latitude": "59.57640000",
    "longitude": "25.72170000",
    "type": "urban municipality",
    "timezone": "Europe/Tallinn",
    "CountryID": 69
  },
  {
    "id": 5762,
    "name": "Lüganuse",
    "iso2": "442",
    "native": "Lüganuse",
    "latitude": "59.35000000",
    "longitude": "27.15000000",
    "type": "rural municipality",
    "timezone": "Europe/Tallinn",
    "CountryID": 69
  },
  {
    "id": 5760,
    "name": "Luunja",
    "iso2": "432",
    "native": "Luunja",
    "latitude": "58.38330000",
    "longitude": "26.91670000",
    "type": "rural municipality",
    "timezone": "Europe/Tallinn",
    "CountryID": 69
  },
  {
    "id": 5804,
    "name": "Maardu",
    "iso2": "446",
    "native": "Maardu",
    "latitude": "59.46530000",
    "longitude": "25.01440000",
    "type": "urban municipality",
    "timezone": "Europe/Tallinn",
    "CountryID": 69
  },
  {
    "id": 5766,
    "name": "Märjamaa",
    "iso2": "503",
    "native": "Märjamaa",
    "latitude": "58.88330000",
    "longitude": "24.46670000",
    "type": "rural municipality",
    "timezone": "Europe/Tallinn",
    "CountryID": 69
  },
  {
    "id": 5763,
    "name": "Muhu",
    "iso2": "478",
    "native": "Muhu",
    "latitude": "58.60000000",
    "longitude": "23.25000000",
    "type": "rural municipality",
    "timezone": "Europe/Tallinn",
    "CountryID": 69
  },
  {
    "id": 5764,
    "name": "Mulgi",
    "iso2": "480",
    "native": "Mulgi",
    "latitude": "58.10000000",
    "longitude": "25.50000000",
    "type": "rural municipality",
    "timezone": "Europe/Tallinn",
    "CountryID": 69
  },
  {
    "id": 5765,
    "name": "Mustvee",
    "iso2": "486",
    "native": "Mustvee",
    "latitude": "58.85000000",
    "longitude": "26.93330000",
    "type": "rural municipality",
    "timezone": "Europe/Tallinn",
    "CountryID": 69
  },
  {
    "id": 5805,
    "name": "Narva",
    "iso2": "511",
    "native": "Narva",
    "latitude": "59.37720000",
    "longitude": "28.19030000",
    "type": "urban municipality",
    "timezone": "Europe/Tallinn",
    "CountryID": 69
  },
  {
    "id": 5806,
    "name": "Narva-Jõesuu",
    "iso2": "514",
    "native": "Narva-Jõesuu",
    "latitude": "59.45390000",
    "longitude": "28.03940000",
    "type": "urban municipality",
    "timezone": "Europe/Tallinn",
    "CountryID": 69
  },
  {
    "id": 5767,
    "name": "Noo",
    "iso2": "528",
    "native": "Noo",
    "latitude": "58.28330000",
    "longitude": "26.55000000",
    "type": "rural municipality",
    "timezone": "Europe/Tallinn",
    "CountryID": 69
  },
  {
    "id": 5768,
    "name": "Otepää",
    "iso2": "557",
    "native": "Otepää",
    "latitude": "58.06670000",
    "longitude": "26.50000000",
    "type": "rural municipality",
    "timezone": "Europe/Tallinn",
    "CountryID": 69
  },
  {
    "id": 5807,
    "name": "Paide",
    "iso2": "567",
    "native": "Paide",
    "latitude": "58.88560000",
    "longitude": "25.55690000",
    "type": "urban municipality",
    "timezone": "Europe/Tallinn",
    "CountryID": 69
  },
  {
    "id": 3562,
    "name": "Pärnu",
    "iso2": "68",
    "native": "Pärnu",
    "latitude": "58.38708330",
    "longitude": "24.50283100",
    "type": "county",
    "timezone": "Europe/Tallinn",
    "CountryID": 69
  },
  {
    "id": 5808,
    "name": "Pärnu",
    "iso2": "624",
    "native": "Pärnu",
    "latitude": "58.38060000",
    "longitude": "24.49890000",
    "type": "urban municipality",
    "timezone": "Europe/Tallinn",
    "CountryID": 69
  },
  {
    "id": 5769,
    "name": "Peipsiääre",
    "iso2": "586",
    "native": "Peipsiääre",
    "latitude": "58.66670000",
    "longitude": "27.41670000",
    "type": "rural municipality",
    "timezone": "Europe/Tallinn",
    "CountryID": 69
  },
  {
    "id": 5773,
    "name": "Põhja-Pärnu",
    "iso2": "638",
    "native": "Põhja-Pärnu",
    "latitude": "58.83330000",
    "longitude": "24.41670000",
    "type": "rural municipality",
    "timezone": "Europe/Tallinn",
    "CountryID": 69
  },
  {
    "id": 5770,
    "name": "Põhja-Sakala",
    "iso2": "615",
    "native": "Põhja-Sakala",
    "latitude": "58.48330000",
    "longitude": "25.53330000",
    "type": "rural municipality",
    "timezone": "Europe/Tallinn",
    "CountryID": 69
  },
  {
    "id": 5771,
    "name": "Poltsamaa",
    "iso2": "618",
    "native": "Poltsamaa",
    "latitude": "58.65000000",
    "longitude": "25.96670000",
    "type": "rural municipality",
    "timezone": "Europe/Tallinn",
    "CountryID": 69
  },
  {
    "id": 5772,
    "name": "Põlva",
    "iso2": "622",
    "native": "Põlva",
    "latitude": "58.06670000",
    "longitude": "27.05000000",
    "type": "rural municipality",
    "timezone": "Europe/Tallinn",
    "CountryID": 69
  },
  {
    "id": 3563,
    "name": "Põlva",
    "iso2": "64",
    "native": "Põlva",
    "latitude": "58.16949240",
    "longitude": "27.15670660",
    "type": "county",
    "timezone": "Europe/Tallinn",
    "CountryID": 69
  },
  {
    "id": 5774,
    "name": "Raasiku",
    "iso2": "651",
    "native": "Raasiku",
    "latitude": "59.35000000",
    "longitude": "25.18330000",
    "type": "rural municipality",
    "timezone": "Europe/Tallinn",
    "CountryID": 69
  },
  {
    "id": 5775,
    "name": "Rae",
    "iso2": "653",
    "native": "Rae",
    "latitude": "59.35000000",
    "longitude": "24.96670000",
    "type": "rural municipality",
    "timezone": "Europe/Tallinn",
    "CountryID": 69
  },
  {
    "id": 5809,
    "name": "Rakvere",
    "iso2": "663",
    "native": "Rakvere",
    "latitude": "59.34700000",
    "longitude": "26.35580000",
    "type": "urban municipality",
    "timezone": "Europe/Tallinn",
    "CountryID": 69
  },
  {
    "id": 5776,
    "name": "Rakvere",
    "iso2": "661",
    "native": "Rakvere",
    "latitude": "59.34700000",
    "longitude": "26.35580000",
    "type": "rural municipality",
    "timezone": "Europe/Tallinn",
    "CountryID": 69
  },
  {
    "id": 5780,
    "name": "Räpina",
    "iso2": "708",
    "native": "Räpina",
    "latitude": "58.09830000",
    "longitude": "27.46390000",
    "type": "rural municipality",
    "timezone": "Europe/Tallinn",
    "CountryID": 69
  },
  {
    "id": 5777,
    "name": "Rapla",
    "iso2": "668",
    "native": "Rapla",
    "latitude": "58.98330000",
    "longitude": "24.80000000",
    "type": "rural municipality",
    "timezone": "Europe/Tallinn",
    "CountryID": 69
  },
  {
    "id": 3559,
    "name": "Rapla",
    "iso2": "71",
    "native": "Rapla",
    "latitude": "58.94197810",
    "longitude": "24.69840420",
    "type": "county",
    "timezone": "Europe/Tallinn",
    "CountryID": 69
  },
  {
    "id": 5779,
    "name": "Rõuge",
    "iso2": "698",
    "native": "Rõuge",
    "latitude": "57.76670000",
    "longitude": "27.03330000",
    "type": "rural municipality",
    "timezone": "Europe/Tallinn",
    "CountryID": 69
  },
  {
    "id": 5778,
    "name": "Ruhnu",
    "iso2": "689",
    "native": "Ruhnu",
    "latitude": "57.80000000",
    "longitude": "23.26670000",
    "type": "rural municipality",
    "timezone": "Europe/Tallinn",
    "CountryID": 69
  },
  {
    "id": 5781,
    "name": "Saarde",
    "iso2": "712",
    "native": "Saarde",
    "latitude": "58.25000000",
    "longitude": "24.66670000",
    "type": "rural municipality",
    "timezone": "Europe/Tallinn",
    "CountryID": 69
  },
  {
    "id": 3561,
    "name": "Saare",
    "iso2": "74",
    "native": "Saare",
    "latitude": "58.36972190",
    "longitude": "23.83580310",
    "type": "county",
    "timezone": "Europe/Tallinn",
    "CountryID": 69
  },
  {
    "id": 5782,
    "name": "Saaremaa",
    "iso2": "714",
    "native": "Saaremaa",
    "latitude": "58.41670000",
    "longitude": "22.50000000",
    "type": "rural municipality",
    "timezone": "Europe/Tallinn",
    "CountryID": 69
  },
  {
    "id": 5783,
    "name": "Saku",
    "iso2": "719",
    "native": "Saku",
    "latitude": "59.28330000",
    "longitude": "24.66670000",
    "type": "rural municipality",
    "timezone": "Europe/Tallinn",
    "CountryID": 69
  },
  {
    "id": 5784,
    "name": "Saue",
    "iso2": "726",
    "native": "Saue",
    "latitude": "59.31670000",
    "longitude": "24.55000000",
    "type": "rural municipality",
    "timezone": "Europe/Tallinn",
    "CountryID": 69
  },
  {
    "id": 5785,
    "name": "Setomaa",
    "iso2": "732",
    "native": "Setomaa",
    "latitude": "57.70000000",
    "longitude": "27.63330000",
    "type": "rural municipality",
    "timezone": "Europe/Tallinn",
    "CountryID": 69
  },
  {
    "id": 5810,
    "name": "Sillamäe",
    "iso2": "735",
    "native": "Sillamäe",
    "latitude": "59.39690000",
    "longitude": "27.76310000",
    "type": "urban municipality",
    "timezone": "Europe/Tallinn",
    "CountryID": 69
  },
  {
    "id": 5811,
    "name": "Tallinn",
    "iso2": "784",
    "native": "Tallinn",
    "latitude": "59.43700000",
    "longitude": "24.75360000",
    "type": "urban municipality",
    "timezone": "Europe/Tallinn",
    "CountryID": 69
  },
  {
    "id": 5786,
    "name": "Tapa",
    "iso2": "792",
    "native": "Tapa",
    "latitude": "59.26670000",
    "longitude": "26.03330000",
    "type": "rural municipality",
    "timezone": "Europe/Tallinn",
    "CountryID": 69
  },
  {
    "id": 5812,
    "name": "Tartu",
    "iso2": "793",
    "native": "Tartu",
    "latitude": "58.37800000",
    "longitude": "26.72900000",
    "type": "urban municipality",
    "timezone": "Europe/Tallinn",
    "CountryID": 69
  },
  {
    "id": 3557,
    "name": "Tartu",
    "iso2": "79",
    "native": "Tartu",
    "latitude": "58.38012070",
    "longitude": "26.72245000",
    "type": "county",
    "timezone": "Europe/Tallinn",
    "CountryID": 69
  },
  {
    "id": 5787,
    "name": "Tartu",
    "iso2": "796",
    "native": "Tartu",
    "latitude": "58.37800000",
    "longitude": "26.72900000",
    "type": "rural municipality",
    "timezone": "Europe/Tallinn",
    "CountryID": 69
  },
  {
    "id": 5788,
    "name": "Toila",
    "iso2": "803",
    "native": "Toila",
    "latitude": "59.41670000",
    "longitude": "27.51670000",
    "type": "rural municipality",
    "timezone": "Europe/Tallinn",
    "CountryID": 69
  },
  {
    "id": 5789,
    "name": "Tori",
    "iso2": "809",
    "native": "Tori",
    "latitude": "58.48330000",
    "longitude": "24.81670000",
    "type": "rural municipality",
    "timezone": "Europe/Tallinn",
    "CountryID": 69
  },
  {
    "id": 5790,
    "name": "Tõrva",
    "iso2": "824",
    "native": "Tõrva",
    "latitude": "58.00000000",
    "longitude": "25.93330000",
    "type": "rural municipality",
    "timezone": "Europe/Tallinn",
    "CountryID": 69
  },
  {
    "id": 5791,
    "name": "Türi",
    "iso2": "834",
    "native": "Türi",
    "latitude": "58.80830000",
    "longitude": "25.43330000",
    "type": "rural municipality",
    "timezone": "Europe/Tallinn",
    "CountryID": 69
  },
  {
    "id": 5799,
    "name": "Väike-Maarja",
    "iso2": "928",
    "native": "Väike-Maarja",
    "latitude": "59.13330000",
    "longitude": "26.25000000",
    "type": "rural municipality",
    "timezone": "Europe/Tallinn",
    "CountryID": 69
  },
  {
    "id": 5792,
    "name": "Valga",
    "iso2": "855",
    "native": "Valga",
    "latitude": "57.78330000",
    "longitude": "26.05000000",
    "type": "rural municipality",
    "timezone": "Europe/Tallinn",
    "CountryID": 69
  },
  {
    "id": 3558,
    "name": "Valga",
    "iso2": "81",
    "native": "Valga",
    "latitude": "57.77703400",
    "longitude": "26.03156280",
    "type": "county",
    "timezone": "Europe/Tallinn",
    "CountryID": 69
  },
  {
    "id": 5793,
    "name": "Viimsi",
    "iso2": "890",
    "native": "Viimsi",
    "latitude": "59.50000000",
    "longitude": "24.81670000",
    "type": "rural municipality",
    "timezone": "Europe/Tallinn",
    "CountryID": 69
  },
  {
    "id": 5813,
    "name": "Viljandi",
    "iso2": "897",
    "native": "Viljandi",
    "latitude": "58.36390000",
    "longitude": "25.59000000",
    "type": "urban municipality",
    "timezone": "Europe/Tallinn",
    "CountryID": 69
  },
  {
    "id": 3556,
    "name": "Viljandi",
    "iso2": "84",
    "native": "Viljandi",
    "latitude": "58.36454000",
    "longitude": "25.58780740",
    "type": "county",
    "timezone": "Europe/Tallinn",
    "CountryID": 69
  },
  {
    "id": 5794,
    "name": "Viljandi",
    "iso2": "899",
    "native": "Viljandi",
    "latitude": "58.36390000",
    "longitude": "25.59000000",
    "type": "rural municipality",
    "timezone": "Europe/Tallinn",
    "CountryID": 69
  },
  {
    "id": 5795,
    "name": "Vinni",
    "iso2": "901",
    "native": "Vinni",
    "latitude": "59.35000000",
    "longitude": "26.43330000",
    "type": "rural municipality",
    "timezone": "Europe/Tallinn",
    "CountryID": 69
  },
  {
    "id": 5796,
    "name": "Viru-Nigula",
    "iso2": "903",
    "native": "Viru-Nigula",
    "latitude": "59.36670000",
    "longitude": "26.83330000",
    "type": "rural municipality",
    "timezone": "Europe/Tallinn",
    "CountryID": 69
  },
  {
    "id": 5797,
    "name": "Vormsi",
    "iso2": "907",
    "native": "Vormsi",
    "latitude": "59.00000000",
    "longitude": "23.01670000",
    "type": "rural municipality",
    "timezone": "Europe/Tallinn",
    "CountryID": 69
  },
  {
    "id": 5798,
    "name": "Võru",
    "iso2": "917",
    "native": "Võru",
    "latitude": "57.84310000",
    "longitude": "27.01420000",
    "type": "rural municipality",
    "timezone": "Europe/Tallinn",
    "CountryID": 69
  },
  {
    "id": 3560,
    "name": "Võru",
    "iso2": "87",
    "native": "Võru",
    "latitude": "57.81326070",
    "longitude": "26.98475760",
    "type": "county",
    "timezone": "Europe/Tallinn",
    "CountryID": 69
  },
  {
    "id": 5814,
    "name": "Võru",
    "iso2": "919",
    "native": "Võru",
    "latitude": "57.84310000",
    "longitude": "27.01420000",
    "type": "urban municipality",
    "timezone": "Europe/Tallinn",
    "CountryID": 69
  }
]