[
  {
    "id": 2285,
    "name": "Akkar",
    "iso2": "AK",
    "native": "الحبار",
    "latitude": "34.55550090",
    "longitude": "36.20164530",
    "type": "governorate",
    "timezone": "Asia/Beirut",
    "CountryID": 121
  },
  {
    "id": 2283,
    "name": "Baalbek-Hermel",
    "iso2": "BH",
    "native": "بيل هيرميل",
    "latitude": "34.16833300",
    "longitude": "36.31346170",
    "type": "governorate",
    "timezone": "Asia/Beirut",
    "CountryID": 121
  },
  {
    "id": 2286,
    "name": "Beirut",
    "iso2": "BA",
    "native": "بير",
    "latitude": "33.88861060",
    "longitude": "35.49547720",
    "type": "governorate",
    "timezone": "Asia/Beirut",
    "CountryID": 121
  },
  {
    "id": 2287,
    "name": "Beqaa",
    "iso2": "BI",
    "native": "البقاع",
    "latitude": "33.67462040",
    "longitude": "35.83337570",
    "type": "governorate",
    "timezone": "Asia/Beirut",
    "CountryID": 121
  },
  {
    "id": 2282,
    "name": "Mount Lebanon",
    "iso2": "JL",
    "native": "جبل لبنان",
    "latitude": "34.29000000",
    "longitude": "36.09200000",
    "type": "governorate",
    "timezone": "Asia/Beirut",
    "CountryID": 121
  },
  {
    "id": 2288,
    "name": "Nabatieh",
    "iso2": "NA",
    "native": "ناباتيه",
    "latitude": "33.37716930",
    "longitude": "35.48382930",
    "type": "governorate",
    "timezone": "Asia/Beirut",
    "CountryID": 121
  },
  {
    "id": 2284,
    "name": "North",
    "iso2": "AS",
    "native": "شمال",
    "latitude": "34.29000000",
    "longitude": "36.09200000",
    "type": "governorate",
    "timezone": "Asia/Beirut",
    "CountryID": 121
  },
  {
    "id": 2281,
    "name": "South",
    "iso2": "JA",
    "native": "جنوب",
    "latitude": "34.41153390",
    "longitude": "-81.20481400",
    "type": "governorate",
    "timezone": "Asia/Beirut",
    "CountryID": 121
  }
]