[
  {
    "id": 66885,
    "name": "Carnikava",
    "latitude": "57.12935000",
    "longitude": "24.28423000",
    "CountryID": 120,
    "StateID": 4454
  },
  {
    "id": 66870,
    "name": "Aizkraukle",
    "latitude": "56.60477000",
    "longitude": "25.25534000",
    "CountryID": 120,
    "StateID": 4472
  },
  {
    "id": 66904,
    "name": "Jaunjelgava",
    "latitude": "56.61319000",
    "longitude": "25.08316000",
    "CountryID": 120,
    "StateID": 4472
  },
  {
    "id": 66913,
    "name": "Koknese",
    "latitude": "56.65163000",
    "longitude": "25.43637000",
    "CountryID": 120,
    "StateID": 4472
  },
  {
    "id": 66933,
    "name": "Nereta",
    "latitude": "56.20279000",
    "longitude": "25.30752000",
    "CountryID": 120,
    "StateID": 4472
  },
  {
    "id": 66945,
    "name": "Pļaviņas",
    "latitude": "56.61780000",
    "longitude": "25.72552000",
    "CountryID": 120,
    "StateID": 4472
  },
  {
    "id": 66963,
    "name": "Skrīveri",
    "latitude": "56.64500000",
    "longitude": "25.12058000",
    "CountryID": 120,
    "StateID": 4472
  },
  {
    "id": 66875,
    "name": "Alūksne",
    "latitude": "57.42162000",
    "longitude": "27.04662000",
    "CountryID": 120,
    "StateID": 4487
  },
  {
    "id": 66891,
    "name": "Daugavpils",
    "latitude": "55.88333000",
    "longitude": "26.53333000",
    "CountryID": 120,
    "StateID": 4492
  },
  {
    "id": 66900,
    "name": "Ilūkste",
    "latitude": "55.97754000",
    "longitude": "26.29655000",
    "CountryID": 120,
    "StateID": 4492
  },
  {
    "id": 66880,
    "name": "Baltinava",
    "latitude": "56.94394000",
    "longitude": "27.64401000",
    "CountryID": 120,
    "StateID": 4505
  },
  {
    "id": 66881,
    "name": "Balvi",
    "latitude": "57.13130000",
    "longitude": "27.26583000",
    "CountryID": 120,
    "StateID": 4505
  },
  {
    "id": 66952,
    "name": "Rugāji",
    "latitude": "57.00325000",
    "longitude": "27.13371000",
    "CountryID": 120,
    "StateID": 4505
  },
  {
    "id": 66986,
    "name": "Viļaka",
    "latitude": "57.18458000",
    "longitude": "27.67220000",
    "CountryID": 120,
    "StateID": 4505
  },
  {
    "id": 66882,
    "name": "Bauska",
    "latitude": "56.40794000",
    "longitude": "24.19443000",
    "CountryID": 120,
    "StateID": 4465
  },
  {
    "id": 66898,
    "name": "Iecava",
    "latitude": "56.59766000",
    "longitude": "24.20763000",
    "CountryID": 120,
    "StateID": 4465
  },
  {
    "id": 66938,
    "name": "Pilsrundāle",
    "latitude": "56.41812000",
    "longitude": "24.01625000",
    "CountryID": 120,
    "StateID": 4465
  },
  {
    "id": 66982,
    "name": "Vecumnieki",
    "latitude": "56.60608000",
    "longitude": "24.52232000",
    "CountryID": 120,
    "StateID": 4465
  },
  {
    "id": 66888,
    "name": "Cēsis",
    "latitude": "57.31188000",
    "longitude": "25.27456000",
    "CountryID": 120,
    "StateID": 4469
  },
  {
    "id": 66924,
    "name": "Līgatne",
    "latitude": "57.23429000",
    "longitude": "25.04059000",
    "CountryID": 120,
    "StateID": 4469
  },
  {
    "id": 66943,
    "name": "Priekuļi",
    "latitude": "57.31500000",
    "longitude": "25.36147000",
    "CountryID": 120,
    "StateID": 4469
  },
  {
    "id": 66967,
    "name": "Stalbe",
    "latitude": "57.37065000",
    "longitude": "25.03106000",
    "CountryID": 120,
    "StateID": 4469
  },
  {
    "id": 66981,
    "name": "Vecpiebalga",
    "latitude": "57.06090000",
    "longitude": "25.81624000",
    "CountryID": 120,
    "StateID": 4469
  },
  {
    "id": 66871,
    "name": "Aizpute",
    "latitude": "56.72108000",
    "longitude": "21.60156000",
    "CountryID": 120,
    "StateID": 4508
  },
  {
    "id": 66896,
    "name": "Grobiņa",
    "latitude": "56.53521000",
    "longitude": "21.16782000",
    "CountryID": 120,
    "StateID": 4508
  },
  {
    "id": 66920,
    "name": "Lieģi",
    "latitude": "56.58173000",
    "longitude": "21.33399000",
    "CountryID": 120,
    "StateID": 4508
  },
  {
    "id": 66934,
    "name": "Nīca",
    "latitude": "56.34601000",
    "longitude": "21.06401000",
    "CountryID": 120,
    "StateID": 4508
  },
  {
    "id": 66944,
    "name": "Pāvilosta",
    "latitude": "56.88791000",
    "longitude": "21.18593000",
    "CountryID": 120,
    "StateID": 4508
  },
  {
    "id": 66942,
    "name": "Priekule",
    "latitude": "56.44679000",
    "longitude": "21.58968000",
    "CountryID": 120,
    "StateID": 4508
  },
  {
    "id": 66951,
    "name": "Rucava",
    "latitude": "56.16314000",
    "longitude": "21.16156000",
    "CountryID": 120,
    "StateID": 4508
  },
  {
    "id": 66975,
    "name": "Vaiņode",
    "latitude": "56.41848000",
    "longitude": "21.85405000",
    "CountryID": 120,
    "StateID": 4508
  },
  {
    "id": 66877,
    "name": "Auce",
    "latitude": "56.45981000",
    "longitude": "22.90169000",
    "CountryID": 120,
    "StateID": 4437
  },
  {
    "id": 66892,
    "name": "Dobele",
    "latitude": "56.62372000",
    "longitude": "23.27510000",
    "CountryID": 120,
    "StateID": 4437
  },
  {
    "id": 66972,
    "name": "Tērvete",
    "latitude": "56.47989000",
    "longitude": "23.38895000",
    "CountryID": 120,
    "StateID": 4437
  },
  {
    "id": 66988,
    "name": "Zelmeņi",
    "latitude": "56.45167000",
    "longitude": "23.35194000",
    "CountryID": 120,
    "StateID": 4437
  },
  {
    "id": 66897,
    "name": "Gulbene",
    "latitude": "57.17767000",
    "longitude": "26.75291000",
    "CountryID": 120,
    "StateID": 4400
  },
  {
    "id": 66872,
    "name": "Aknīste",
    "latitude": "56.16152000",
    "longitude": "25.74783000",
    "CountryID": 120,
    "StateID": 4438
  },
  {
    "id": 66908,
    "name": "Jēkabpils",
    "latitude": "56.49903000",
    "longitude": "25.85735000",
    "CountryID": 120,
    "StateID": 4438
  },
  {
    "id": 66914,
    "name": "Krustpils",
    "latitude": "56.51068000",
    "longitude": "25.86117000",
    "CountryID": 120,
    "StateID": 4438
  },
  {
    "id": 66985,
    "name": "Viesīte",
    "latitude": "56.34751000",
    "longitude": "25.55514000",
    "CountryID": 120,
    "StateID": 4438
  },
  {
    "id": 66937,
    "name": "Ozolnieki",
    "latitude": "56.68986000",
    "longitude": "23.77610000",
    "CountryID": 120,
    "StateID": 4424
  },
  {
    "id": 66973,
    "name": "Tīreļi",
    "latitude": "56.83991000",
    "longitude": "23.58902000",
    "CountryID": 120,
    "StateID": 4424
  },
  {
    "id": 66906,
    "name": "Jelgava",
    "latitude": "56.65000000",
    "longitude": "23.71278000",
    "CountryID": 120,
    "StateID": 4500
  },
  {
    "id": 66909,
    "name": "Jūrmala",
    "latitude": "56.96800000",
    "longitude": "23.77038000",
    "CountryID": 120,
    "StateID": 4446
  },
  {
    "id": 66878,
    "name": "Baldone",
    "latitude": "56.74451000",
    "longitude": "24.40078000",
    "CountryID": 120,
    "StateID": 4435
  },
  {
    "id": 66879,
    "name": "Baloži",
    "latitude": "56.87643000",
    "longitude": "24.11825000",
    "CountryID": 120,
    "StateID": 4435
  },
  {
    "id": 66992,
    "name": "Ķekava",
    "latitude": "56.82662000",
    "longitude": "24.23000000",
    "CountryID": 120,
    "StateID": 4435
  },
  {
    "id": 66889,
    "name": "Dagda",
    "latitude": "56.09512000",
    "longitude": "27.53723000",
    "CountryID": 120,
    "StateID": 4474
  },
  {
    "id": 66915,
    "name": "Krāslava",
    "latitude": "55.89514000",
    "longitude": "27.16799000",
    "CountryID": 120,
    "StateID": 4474
  },
  {
    "id": 66874,
    "name": "Alsunga",
    "latitude": "56.98194000",
    "longitude": "21.55938000",
    "CountryID": 120,
    "StateID": 4490
  },
  {
    "id": 66916,
    "name": "Kuldīga",
    "latitude": "56.97399000",
    "longitude": "21.95721000",
    "CountryID": 120,
    "StateID": 4490
  },
  {
    "id": 66962,
    "name": "Skrunda",
    "latitude": "56.67749000",
    "longitude": "22.01649000",
    "CountryID": 120,
    "StateID": 4490
  },
  {
    "id": 66911,
    "name": "Karosta",
    "latitude": "56.55128000",
    "longitude": "21.01287000",
    "CountryID": 120,
    "StateID": 4460
  },
  {
    "id": 66919,
    "name": "Liepāja",
    "latitude": "56.50474000",
    "longitude": "21.01085000",
    "CountryID": 120,
    "StateID": 4460
  },
  {
    "id": 66869,
    "name": "Ainaži",
    "latitude": "57.86348000",
    "longitude": "24.35853000",
    "CountryID": 120,
    "StateID": 4418
  },
  {
    "id": 66873,
    "name": "Aloja",
    "latitude": "57.76723000",
    "longitude": "24.87743000",
    "CountryID": 120,
    "StateID": 4418
  },
  {
    "id": 66921,
    "name": "Limbaži",
    "latitude": "57.51287000",
    "longitude": "24.71941000",
    "CountryID": 120,
    "StateID": 4418
  },
  {
    "id": 66956,
    "name": "Salacgrīva",
    "latitude": "57.75312000",
    "longitude": "24.35895000",
    "CountryID": 120,
    "StateID": 4418
  },
  {
    "id": 66966,
    "name": "Staicele",
    "latitude": "57.83579000",
    "longitude": "24.74706000",
    "CountryID": 120,
    "StateID": 4418
  },
  {
    "id": 66925,
    "name": "Līvāni",
    "latitude": "56.35431000",
    "longitude": "26.17579000",
    "CountryID": 120,
    "StateID": 4401
  },
  {
    "id": 66887,
    "name": "Cibla",
    "latitude": "56.54980000",
    "longitude": "27.88370000",
    "CountryID": 120,
    "StateID": 4501
  },
  {
    "id": 66917,
    "name": "Kārsava",
    "latitude": "56.78405000",
    "longitude": "27.68829000",
    "CountryID": 120,
    "StateID": 4501
  },
  {
    "id": 66923,
    "name": "Ludza",
    "latitude": "56.53958000",
    "longitude": "27.71891000",
    "CountryID": 120,
    "StateID": 4501
  },
  {
    "id": 66989,
    "name": "Zilupe",
    "latitude": "56.38616000",
    "longitude": "28.12165000",
    "CountryID": 120,
    "StateID": 4501
  },
  {
    "id": 66886,
    "name": "Cesvaine",
    "latitude": "56.96754000",
    "longitude": "26.30764000",
    "CountryID": 120,
    "StateID": 4433
  },
  {
    "id": 66990,
    "name": "Ērgļi",
    "latitude": "56.89752000",
    "longitude": "25.63668000",
    "CountryID": 120,
    "StateID": 4433
  },
  {
    "id": 66922,
    "name": "Lubāna",
    "latitude": "56.90425000",
    "longitude": "26.71606000",
    "CountryID": 120,
    "StateID": 4433
  },
  {
    "id": 66926,
    "name": "Madona",
    "latitude": "56.85329000",
    "longitude": "26.21698000",
    "CountryID": 120,
    "StateID": 4433
  },
  {
    "id": 66930,
    "name": "Mārupe",
    "latitude": "56.90544000",
    "longitude": "24.05113000",
    "CountryID": 120,
    "StateID": 4450
  },
  {
    "id": 66940,
    "name": "Piņķi",
    "latitude": "56.94189000",
    "longitude": "23.91365000",
    "CountryID": 120,
    "StateID": 4450
  },
  {
    "id": 66899,
    "name": "Ikšķile",
    "latitude": "56.83399000",
    "longitude": "24.49679000",
    "CountryID": 120,
    "StateID": 4416
  },
  {
    "id": 66907,
    "name": "Jumprava",
    "latitude": "56.67613000",
    "longitude": "24.97210000",
    "CountryID": 120,
    "StateID": 4416
  },
  {
    "id": 66991,
    "name": "Ķegums",
    "latitude": "56.74510000",
    "longitude": "24.72439000",
    "CountryID": 120,
    "StateID": 4416
  },
  {
    "id": 66918,
    "name": "Lielvārde",
    "latitude": "56.72066000",
    "longitude": "24.80743000",
    "CountryID": 120,
    "StateID": 4416
  },
  {
    "id": 66935,
    "name": "Ogre",
    "latitude": "56.81620000",
    "longitude": "24.61401000",
    "CountryID": 120,
    "StateID": 4416
  },
  {
    "id": 66936,
    "name": "Olaine",
    "latitude": "56.79472000",
    "longitude": "23.93580000",
    "CountryID": 120,
    "StateID": 4417
  },
  {
    "id": 66868,
    "name": "Aglona",
    "latitude": "56.13274000",
    "longitude": "27.00682000",
    "CountryID": 120,
    "StateID": 4483
  },
  {
    "id": 66902,
    "name": "Jaunaglona",
    "latitude": "56.16066000",
    "longitude": "27.00714000",
    "CountryID": 120,
    "StateID": 4483
  },
  {
    "id": 66941,
    "name": "Preiļi",
    "latitude": "56.29444000",
    "longitude": "26.72459000",
    "CountryID": 120,
    "StateID": 4483
  },
  {
    "id": 66947,
    "name": "Riebiņi",
    "latitude": "56.34280000",
    "longitude": "26.79995000",
    "CountryID": 120,
    "StateID": 4483
  },
  {
    "id": 66983,
    "name": "Vecvārkava",
    "latitude": "56.19838000",
    "longitude": "26.50811000",
    "CountryID": 120,
    "StateID": 4483
  },
  {
    "id": 66953,
    "name": "Rēzekne",
    "latitude": "56.51028000",
    "longitude": "27.34000000",
    "CountryID": 120,
    "StateID": 4509
  },
  {
    "id": 66987,
    "name": "Viļāni",
    "latitude": "56.55253000",
    "longitude": "26.92449000",
    "CountryID": 120,
    "StateID": 4455
  },
  {
    "id": 66883,
    "name": "Bolderaja",
    "latitude": "57.03132000",
    "longitude": "24.05571000",
    "CountryID": 120,
    "StateID": 4491
  },
  {
    "id": 66890,
    "name": "Daugavgrīva",
    "latitude": "57.04315000",
    "longitude": "24.03613000",
    "CountryID": 120,
    "StateID": 4491
  },
  {
    "id": 66903,
    "name": "Jaunciems",
    "latitude": "57.03910000",
    "longitude": "24.17413000",
    "CountryID": 120,
    "StateID": 4491
  },
  {
    "id": 66928,
    "name": "Mežaparks",
    "latitude": "57.00008000",
    "longitude": "24.15997000",
    "CountryID": 120,
    "StateID": 4491
  },
  {
    "id": 66948,
    "name": "Riga",
    "latitude": "56.94600000",
    "longitude": "24.10589000",
    "CountryID": 120,
    "StateID": 4491
  },
  {
    "id": 66895,
    "name": "Garkalne",
    "latitude": "57.04486000",
    "longitude": "24.41951000",
    "CountryID": 120,
    "StateID": 4493
  },
  {
    "id": 66950,
    "name": "Ropaži",
    "latitude": "56.97470000",
    "longitude": "24.63295000",
    "CountryID": 120,
    "StateID": 4493
  },
  {
    "id": 66974,
    "name": "Ulbroka",
    "latitude": "56.93630000",
    "longitude": "24.30387000",
    "CountryID": 120,
    "StateID": 4493
  },
  {
    "id": 66979,
    "name": "Vangaži",
    "latitude": "57.09358000",
    "longitude": "24.54468000",
    "CountryID": 120,
    "StateID": 4493
  },
  {
    "id": 66957,
    "name": "Salaspils",
    "latitude": "56.86014000",
    "longitude": "24.36544000",
    "CountryID": 120,
    "StateID": 4402
  },
  {
    "id": 66884,
    "name": "Brocēni",
    "latitude": "56.67890000",
    "longitude": "22.56945000",
    "CountryID": 120,
    "StateID": 4439
  },
  {
    "id": 66958,
    "name": "Saldus",
    "latitude": "56.66363000",
    "longitude": "22.48807000",
    "CountryID": 120,
    "StateID": 4439
  },
  {
    "id": 66959,
    "name": "Saulkrasti",
    "latitude": "57.26224000",
    "longitude": "24.41471000",
    "CountryID": 120,
    "StateID": 4443
  },
  {
    "id": 66901,
    "name": "Inčukalns",
    "latitude": "57.09867000",
    "longitude": "24.68630000",
    "CountryID": 120,
    "StateID": 4476
  },
  {
    "id": 66929,
    "name": "Mālpils",
    "latitude": "57.01010000",
    "longitude": "24.95783000",
    "CountryID": 120,
    "StateID": 4476
  },
  {
    "id": 66961,
    "name": "Sigulda",
    "latitude": "57.15375000",
    "longitude": "24.85953000",
    "CountryID": 120,
    "StateID": 4476
  },
  {
    "id": 66876,
    "name": "Ape",
    "latitude": "57.53928000",
    "longitude": "26.69291000",
    "CountryID": 120,
    "StateID": 4462
  },
  {
    "id": 66946,
    "name": "Rauna",
    "latitude": "57.33173000",
    "longitude": "25.60947000",
    "CountryID": 120,
    "StateID": 4462
  },
  {
    "id": 66964,
    "name": "Smiltene",
    "latitude": "57.42444000",
    "longitude": "25.90164000",
    "CountryID": 120,
    "StateID": 4462
  },
  {
    "id": 66893,
    "name": "Dundaga",
    "latitude": "57.50498000",
    "longitude": "22.35041000",
    "CountryID": 120,
    "StateID": 4459
  },
  {
    "id": 66949,
    "name": "Roja",
    "latitude": "57.50146000",
    "longitude": "22.80881000",
    "CountryID": 120,
    "StateID": 4459
  },
  {
    "id": 66955,
    "name": "Sabile",
    "latitude": "57.04577000",
    "longitude": "22.57261000",
    "CountryID": 120,
    "StateID": 4459
  },
  {
    "id": 66968,
    "name": "Stende",
    "latitude": "57.14497000",
    "longitude": "22.53482000",
    "CountryID": 120,
    "StateID": 4459
  },
  {
    "id": 66970,
    "name": "Talsi",
    "latitude": "57.24562000",
    "longitude": "22.58137000",
    "CountryID": 120,
    "StateID": 4459
  },
  {
    "id": 66976,
    "name": "Valdemārpils",
    "latitude": "57.37068000",
    "longitude": "22.59188000",
    "CountryID": 120,
    "StateID": 4459
  },
  {
    "id": 66894,
    "name": "Engure",
    "latitude": "57.16061000",
    "longitude": "23.22527000",
    "CountryID": 120,
    "StateID": 4409
  },
  {
    "id": 66905,
    "name": "Jaunpils",
    "latitude": "56.73137000",
    "longitude": "23.01247000",
    "CountryID": 120,
    "StateID": 4409
  },
  {
    "id": 66910,
    "name": "Kandava",
    "latitude": "57.04087000",
    "longitude": "22.77466000",
    "CountryID": 120,
    "StateID": 4409
  },
  {
    "id": 66965,
    "name": "Smārde",
    "latitude": "56.95420000",
    "longitude": "23.33736000",
    "CountryID": 120,
    "StateID": 4409
  },
  {
    "id": 66971,
    "name": "Tukums",
    "latitude": "56.96764000",
    "longitude": "23.15554000",
    "CountryID": 120,
    "StateID": 4409
  },
  {
    "id": 66977,
    "name": "Valka",
    "latitude": "57.77520000",
    "longitude": "26.01013000",
    "CountryID": 120,
    "StateID": 4425
  },
  {
    "id": 66912,
    "name": "Kocēni",
    "latitude": "57.52057000",
    "longitude": "25.33821000",
    "CountryID": 120,
    "StateID": 4473
  },
  {
    "id": 66927,
    "name": "Mazsalaca",
    "latitude": "57.86329000",
    "longitude": "25.05475000",
    "CountryID": 120,
    "StateID": 4473
  },
  {
    "id": 66931,
    "name": "Mūrmuiža",
    "latitude": "57.47312000",
    "longitude": "25.49174000",
    "CountryID": 120,
    "StateID": 4473
  },
  {
    "id": 66932,
    "name": "Naukšēni",
    "latitude": "57.88349000",
    "longitude": "25.45609000",
    "CountryID": 120,
    "StateID": 4473
  },
  {
    "id": 66954,
    "name": "Rūjiena",
    "latitude": "57.89752000",
    "longitude": "25.33155000",
    "CountryID": 120,
    "StateID": 4473
  },
  {
    "id": 66960,
    "name": "Seda",
    "latitude": "57.65042000",
    "longitude": "25.75089000",
    "CountryID": 120,
    "StateID": 4473
  },
  {
    "id": 66969,
    "name": "Strenči",
    "latitude": "57.62574000",
    "longitude": "25.68535000",
    "CountryID": 120,
    "StateID": 4473
  },
  {
    "id": 66978,
    "name": "Valmiera",
    "latitude": "57.54108000",
    "longitude": "25.42751000",
    "CountryID": 120,
    "StateID": 4473
  },
  {
    "id": 66980,
    "name": "Varakļāni",
    "latitude": "56.60826000",
    "longitude": "26.75377000",
    "CountryID": 120,
    "StateID": 4431
  },
  {
    "id": 66984,
    "name": "Ventspils",
    "latitude": "57.38988000",
    "longitude": "21.57288000",
    "CountryID": 120,
    "StateID": 4421
  },
  {
    "id": 66939,
    "name": "Piltene",
    "latitude": "57.22426000",
    "longitude": "21.67439000",
    "CountryID": 120,
    "StateID": 4403
  }
]