[
  {
    "id": 4454,
    "name": "Ādaži",
    "iso2": "011",
    "native": "Ādaži",
    "latitude": "57.08746710",
    "longitude": "24.31957970",
    "type": "municipality",
    "timezone": "Europe/Riga",
    "CountryID": 120
  },
  {
    "id": 4472,
    "name": "Aizkraukle",
    "iso2": "002",
    "native": "Aizkraukle",
    "latitude": "56.61667080",
    "longitude": "25.22306430",
    "type": "municipality",
    "timezone": "Europe/Riga",
    "CountryID": 120
  },
  {
    "id": 4487,
    "name": "Alūksne",
    "iso2": "007",
    "native": "Alūksne",
    "latitude": "57.42544850",
    "longitude": "27.04249680",
    "type": "municipality",
    "timezone": "Europe/Riga",
    "CountryID": 120
  },
  {
    "id": 4492,
    "name": "Augšdaugava",
    "iso2": "111",
    "native": "Augšdaugava",
    "latitude": "55.85613230",
    "longitude": "27.04580760",
    "type": "municipality",
    "timezone": "Europe/Riga",
    "CountryID": 120
  },
  {
    "id": 4505,
    "name": "Balvi",
    "iso2": "015",
    "native": "Balvi",
    "latitude": "57.13262400",
    "longitude": "27.26466850",
    "type": "municipality",
    "timezone": "Europe/Riga",
    "CountryID": 120
  },
  {
    "id": 4465,
    "name": "Bauska",
    "iso2": "016",
    "native": "Bauska",
    "latitude": "56.41018680",
    "longitude": "24.20006890",
    "type": "municipality",
    "timezone": "Europe/Riga",
    "CountryID": 120
  },
  {
    "id": 4469,
    "name": "Cēsis",
    "iso2": "022",
    "native": "Cēsis",
    "latitude": "57.31028970",
    "longitude": "25.26761250",
    "type": "municipality",
    "timezone": "Europe/Riga",
    "CountryID": 120
  },
  {
    "id": 4463,
    "name": "Daugavpils",
    "iso2": "DGV",
    "native": "Daugavpils",
    "latitude": "55.87122670",
    "longitude": "26.51593370",
    "type": "state city",
    "timezone": "Europe/Riga",
    "CountryID": 120
  },
  {
    "id": 4508,
    "name": "Dienvidkurzemes",
    "iso2": "112",
    "native": "Dienvidkurzemes",
    "latitude": "56.52245750",
    "longitude": "21.45958940",
    "type": "municipality",
    "timezone": "Europe/Riga",
    "CountryID": 120
  },
  {
    "id": 4437,
    "name": "Dobele",
    "iso2": "026",
    "native": "Dobele",
    "latitude": "56.62630500",
    "longitude": "23.28090660",
    "type": "municipality",
    "timezone": "Europe/Riga",
    "CountryID": 120
  },
  {
    "id": 4400,
    "name": "Gulbene",
    "iso2": "033",
    "native": "Gulbene",
    "latitude": "57.17597210",
    "longitude": "26.75147130",
    "type": "municipality",
    "timezone": "Europe/Riga",
    "CountryID": 120
  },
  {
    "id": 4438,
    "name": "Jēkabpils",
    "iso2": "042",
    "native": "Jēkabpils",
    "latitude": "56.49586380",
    "longitude": "25.86877470",
    "type": "municipality",
    "timezone": "Europe/Riga",
    "CountryID": 120
  },
  {
    "id": 4424,
    "name": "Jelgava",
    "iso2": "041",
    "native": "Jelgava",
    "latitude": "56.65143940",
    "longitude": "23.73391430",
    "type": "municipality",
    "timezone": "Europe/Riga",
    "CountryID": 120
  },
  {
    "id": 4500,
    "name": "Jelgava",
    "iso2": "JEL",
    "native": "Jelgava",
    "latitude": "56.65143940",
    "longitude": "23.73391430",
    "type": "state city",
    "timezone": "Europe/Riga",
    "CountryID": 120
  },
  {
    "id": 4446,
    "name": "Jūrmala",
    "iso2": "JUR",
    "native": "Jūrmala",
    "latitude": "56.97271640",
    "longitude": "23.78869790",
    "type": "state city",
    "timezone": "Europe/Riga",
    "CountryID": 120
  },
  {
    "id": 4435,
    "name": "Ķekava",
    "iso2": "052",
    "native": "Ķekava",
    "latitude": "56.82584650",
    "longitude": "24.22081280",
    "type": "municipality",
    "timezone": "Europe/Riga",
    "CountryID": 120
  },
  {
    "id": 4474,
    "name": "Krāslava",
    "iso2": "047",
    "native": "Krāslava",
    "latitude": "55.89520600",
    "longitude": "27.16193040",
    "type": "municipality",
    "timezone": "Europe/Riga",
    "CountryID": 120
  },
  {
    "id": 4490,
    "name": "Kuldīga",
    "iso2": "050",
    "native": "Kuldīga",
    "latitude": "56.96872570",
    "longitude": "21.96137390",
    "type": "municipality",
    "timezone": "Europe/Riga",
    "CountryID": 120
  },
  {
    "id": 4460,
    "name": "Liepāja",
    "iso2": "LPX",
    "native": "Liepāja",
    "latitude": "56.50466780",
    "longitude": "21.01080600",
    "type": "state city",
    "timezone": "Europe/Riga",
    "CountryID": 120
  },
  {
    "id": 4418,
    "name": "Limbaži",
    "iso2": "054",
    "native": "Limbaži",
    "latitude": "57.51465860",
    "longitude": "24.71315360",
    "type": "municipality",
    "timezone": "Europe/Riga",
    "CountryID": 120
  },
  {
    "id": 4401,
    "name": "Līvāni",
    "iso2": "056",
    "native": "Līvāni",
    "latitude": "56.35509420",
    "longitude": "26.17251900",
    "type": "municipality",
    "timezone": "Europe/Riga",
    "CountryID": 120
  },
  {
    "id": 4501,
    "name": "Ludza",
    "iso2": "058",
    "native": "Ludza",
    "latitude": "56.54595900",
    "longitude": "27.71431990",
    "type": "municipality",
    "timezone": "Europe/Riga",
    "CountryID": 120
  },
  {
    "id": 4433,
    "name": "Madona",
    "iso2": "059",
    "native": "Madona",
    "latitude": "56.85174670",
    "longitude": "26.21847690",
    "type": "municipality",
    "timezone": "Europe/Riga",
    "CountryID": 120
  },
  {
    "id": 4450,
    "name": "Mārupe",
    "iso2": "062",
    "native": "Mārupe",
    "latitude": "56.89657170",
    "longitude": "24.04600490",
    "type": "municipality",
    "timezone": "Europe/Riga",
    "CountryID": 120
  },
  {
    "id": 4416,
    "name": "Ogre",
    "iso2": "067",
    "native": "Ogre",
    "latitude": "56.81473550",
    "longitude": "24.60445550",
    "type": "municipality",
    "timezone": "Europe/Riga",
    "CountryID": 120
  },
  {
    "id": 4417,
    "name": "Olaine",
    "iso2": "068",
    "native": "Olaine",
    "latitude": "56.79059060",
    "longitude": "23.93319810",
    "type": "municipality",
    "timezone": "Europe/Riga",
    "CountryID": 120
  },
  {
    "id": 4483,
    "name": "Preiļi",
    "iso2": "073",
    "native": "Preiļi",
    "latitude": "56.29373660",
    "longitude": "26.72667340",
    "type": "municipality",
    "timezone": "Europe/Riga",
    "CountryID": 120
  },
  {
    "id": 4509,
    "name": "Rēzekne",
    "iso2": "REZ",
    "native": "Rēzekne",
    "latitude": "56.50628100",
    "longitude": "27.33066230",
    "type": "state city",
    "timezone": "Europe/Riga",
    "CountryID": 120
  },
  {
    "id": 4455,
    "name": "Rēzekne",
    "iso2": "077",
    "native": "Rēzekne",
    "latitude": "56.50628100",
    "longitude": "27.33066230",
    "type": "municipality",
    "timezone": "Europe/Riga",
    "CountryID": 120
  },
  {
    "id": 4491,
    "name": "Riga",
    "iso2": "RIX",
    "native": "Riga",
    "latitude": "56.94964870",
    "longitude": "24.10518650",
    "type": "state city",
    "timezone": "Europe/Riga",
    "CountryID": 120
  },
  {
    "id": 4493,
    "name": "Ropaži",
    "iso2": "080",
    "native": "Ropaži",
    "latitude": "56.97137710",
    "longitude": "24.63072330",
    "type": "municipality",
    "timezone": "Europe/Riga",
    "CountryID": 120
  },
  {
    "id": 4402,
    "name": "Salaspils",
    "iso2": "087",
    "native": "Salaspils",
    "latitude": "56.86081520",
    "longitude": "24.34978810",
    "type": "municipality",
    "timezone": "Europe/Riga",
    "CountryID": 120
  },
  {
    "id": 4439,
    "name": "Saldus",
    "iso2": "088",
    "native": "Mīļš",
    "latitude": "56.66650880",
    "longitude": "22.49354930",
    "type": "municipality",
    "timezone": "Europe/Riga",
    "CountryID": 120
  },
  {
    "id": 4443,
    "name": "Saulkrasti",
    "iso2": "089",
    "native": "Saulkrasti",
    "latitude": "57.25794180",
    "longitude": "24.41831460",
    "type": "municipality",
    "timezone": "Europe/Riga",
    "CountryID": 120
  },
  {
    "id": 4476,
    "name": "Sigulda",
    "iso2": "091",
    "native": "Sigulda",
    "latitude": "57.15405610",
    "longitude": "24.85671410",
    "type": "municipality",
    "timezone": "Europe/Riga",
    "CountryID": 120
  },
  {
    "id": 4462,
    "name": "Smiltene",
    "iso2": "094",
    "native": "Smiltene",
    "latitude": "57.42303320",
    "longitude": "25.90027800",
    "type": "municipality",
    "timezone": "Europe/Riga",
    "CountryID": 120
  },
  {
    "id": 4459,
    "name": "Talsi",
    "iso2": "097",
    "native": "Talsi",
    "latitude": "57.24519260",
    "longitude": "22.59030030",
    "type": "municipality",
    "timezone": "Europe/Riga",
    "CountryID": 120
  },
  {
    "id": 4409,
    "name": "Tukums",
    "iso2": "099",
    "native": "Tukums",
    "latitude": "56.96728680",
    "longitude": "23.15243790",
    "type": "municipality",
    "timezone": "Europe/Riga",
    "CountryID": 120
  },
  {
    "id": 4425,
    "name": "Valka",
    "iso2": "101",
    "native": "Valka",
    "latitude": "57.77439000",
    "longitude": "26.01700500",
    "type": "municipality",
    "timezone": "Europe/Riga",
    "CountryID": 120
  },
  {
    "id": 4473,
    "name": "Valmiera",
    "iso2": "113",
    "native": "Valmiera",
    "latitude": "57.53846590",
    "longitude": "25.42636180",
    "type": "municipality",
    "timezone": "Europe/Riga",
    "CountryID": 120
  },
  {
    "id": 4431,
    "name": "Varakļāni",
    "iso2": "102",
    "native": "Varakļāni",
    "latitude": "56.60887430",
    "longitude": "26.75390930",
    "type": "municipality",
    "timezone": "Europe/Riga",
    "CountryID": 120
  },
  {
    "id": 4421,
    "name": "Ventspils",
    "iso2": "VEN",
    "native": "Ventspils",
    "latitude": "57.39039180",
    "longitude": "21.56359910",
    "type": "state city",
    "timezone": "Europe/Riga",
    "CountryID": 120
  },
  {
    "id": 4403,
    "name": "Ventspils",
    "iso2": "106",
    "native": "Ventspils",
    "latitude": "57.39039180",
    "longitude": "21.56359910",
    "type": "municipality",
    "timezone": "Europe/Riga",
    "CountryID": 120
  }
]