[
  {
    "id": 4724,
    "name": "Alba",
    "iso2": "AB",
    "native": "Alba",
    "latitude": "46.01593620",
    "longitude": "23.54684970",
    "type": "department",
    "timezone": "Europe/Bucharest",
    "CountryID": 181
  },
  {
    "id": 4739,
    "name": "Arad",
    "iso2": "AR",
    "native": "Arad",
    "latitude": "46.29137060",
    "longitude": "21.89251850",
    "type": "department",
    "timezone": "Europe/Bucharest",
    "CountryID": 181
  },
  {
    "id": 4722,
    "name": "Arges",
    "iso2": "AG",
    "native": "Arges",
    "latitude": "44.99397640",
    "longitude": "24.84886850",
    "type": "department",
    "timezone": "Europe/Bucharest",
    "CountryID": 181
  },
  {
    "id": 4744,
    "name": "Bacău",
    "iso2": "BC",
    "native": "Bacău",
    "latitude": "46.42287030",
    "longitude": "26.71639910",
    "type": "department",
    "timezone": "Europe/Bucharest",
    "CountryID": 181
  },
  {
    "id": 4723,
    "name": "Bihor",
    "iso2": "BH",
    "native": "Bihor",
    "latitude": "46.99268990",
    "longitude": "22.19275200",
    "type": "department",
    "timezone": "Europe/Bucharest",
    "CountryID": 181
  },
  {
    "id": 4733,
    "name": "Bistrița-Năsăud",
    "iso2": "BN",
    "native": "Bistrița-Năsăud",
    "latitude": "47.17725480",
    "longitude": "24.54115920",
    "type": "department",
    "timezone": "Europe/Bucharest",
    "CountryID": 181
  },
  {
    "id": 4740,
    "name": "Botoșani",
    "iso2": "BT",
    "native": "Botoșani",
    "latitude": "47.85282630",
    "longitude": "26.75933400",
    "type": "department",
    "timezone": "Europe/Bucharest",
    "CountryID": 181
  },
  {
    "id": 4736,
    "name": "Braila",
    "iso2": "BR",
    "native": "Braila",
    "latitude": "45.27160920",
    "longitude": "27.97429320",
    "type": "department",
    "timezone": "Europe/Bucharest",
    "CountryID": 181
  },
  {
    "id": 4759,
    "name": "Brașov",
    "iso2": "BV",
    "native": "Brașov",
    "latitude": "45.78602220",
    "longitude": "25.15407320",
    "type": "department",
    "timezone": "Europe/Bucharest",
    "CountryID": 181
  },
  {
    "id": 4730,
    "name": "Bucharest",
    "iso2": "B",
    "native": "Bucureşti",
    "latitude": "44.43614140",
    "longitude": "26.10272020",
    "type": "municipality",
    "timezone": "Europe/Bucharest",
    "CountryID": 181
  },
  {
    "id": 4756,
    "name": "Buzău",
    "iso2": "BZ",
    "native": "Buzău",
    "latitude": "45.26925810",
    "longitude": "26.77481730",
    "type": "department",
    "timezone": "Europe/Bucharest",
    "CountryID": 181
  },
  {
    "id": 4732,
    "name": "Călărași",
    "iso2": "CL",
    "native": "Călărași",
    "latitude": "44.31518740",
    "longitude": "27.13901560",
    "type": "department",
    "timezone": "Europe/Bucharest",
    "CountryID": 181
  },
  {
    "id": 4753,
    "name": "Caraș-Severin",
    "iso2": "CS",
    "native": "Caraș-Severin",
    "latitude": "45.12713440",
    "longitude": "22.07714450",
    "type": "department",
    "timezone": "Europe/Bucharest",
    "CountryID": 181
  },
  {
    "id": 4734,
    "name": "Cluj",
    "iso2": "CJ",
    "native": "Cluj",
    "latitude": "46.76937900",
    "longitude": "23.58995420",
    "type": "department",
    "timezone": "Europe/Bucharest",
    "CountryID": 181
  },
  {
    "id": 4737,
    "name": "Constanța",
    "iso2": "CT",
    "native": "Constanța",
    "latitude": "44.26785910",
    "longitude": "28.29207870",
    "type": "department",
    "timezone": "Europe/Bucharest",
    "CountryID": 181
  },
  {
    "id": 4754,
    "name": "Covasna",
    "iso2": "CV",
    "native": "Covasna",
    "latitude": "45.89667930",
    "longitude": "26.01018060",
    "type": "department",
    "timezone": "Europe/Bucharest",
    "CountryID": 181
  },
  {
    "id": 4745,
    "name": "Dâmbovița",
    "iso2": "DB",
    "native": "Dâmbovița",
    "latitude": "44.92245650",
    "longitude": "25.48195750",
    "type": "department",
    "timezone": "Europe/Bucharest",
    "CountryID": 181
  },
  {
    "id": 4742,
    "name": "Dolj",
    "iso2": "DJ",
    "native": "Dolj",
    "latitude": "44.21501230",
    "longitude": "23.66936300",
    "type": "department",
    "timezone": "Europe/Bucharest",
    "CountryID": 181
  },
  {
    "id": 4747,
    "name": "Galați",
    "iso2": "GL",
    "native": "Galați",
    "latitude": "45.77724390",
    "longitude": "27.74965750",
    "type": "department",
    "timezone": "Europe/Bucharest",
    "CountryID": 181
  },
  {
    "id": 4726,
    "name": "Giurgiu",
    "iso2": "GR",
    "native": "Giurgiu",
    "latitude": "43.90370760",
    "longitude": "25.96992650",
    "type": "department",
    "timezone": "Europe/Bucharest",
    "CountryID": 181
  },
  {
    "id": 4750,
    "name": "Gorj",
    "iso2": "GJ",
    "native": "Gorj",
    "latitude": "44.96116750",
    "longitude": "23.32567990",
    "type": "department",
    "timezone": "Europe/Bucharest",
    "CountryID": 181
  },
  {
    "id": 4749,
    "name": "Harghita",
    "iso2": "HR",
    "native": "Harghita",
    "latitude": "46.64430610",
    "longitude": "25.62219190",
    "type": "department",
    "timezone": "Europe/Bucharest",
    "CountryID": 181
  },
  {
    "id": 4721,
    "name": "Hunedoara",
    "iso2": "HD",
    "native": "Hunedoara",
    "latitude": "45.79540680",
    "longitude": "22.94524300",
    "type": "department",
    "timezone": "Europe/Bucharest",
    "CountryID": 181
  },
  {
    "id": 4743,
    "name": "Ialomița",
    "iso2": "IL",
    "native": "Ialomița",
    "latitude": "44.59607610",
    "longitude": "27.20163680",
    "type": "department",
    "timezone": "Europe/Bucharest",
    "CountryID": 181
  },
  {
    "id": 4735,
    "name": "Iași",
    "iso2": "IS",
    "native": "Iași",
    "latitude": "47.19773720",
    "longitude": "27.19705980",
    "type": "department",
    "timezone": "Europe/Bucharest",
    "CountryID": 181
  },
  {
    "id": 4725,
    "name": "Ilfov",
    "iso2": "IF",
    "native": "Ilfov",
    "latitude": "44.50170740",
    "longitude": "26.24490770",
    "type": "department",
    "timezone": "Europe/Bucharest",
    "CountryID": 181
  },
  {
    "id": 4760,
    "name": "Maramureș",
    "iso2": "MM",
    "native": "Maramureș",
    "latitude": "47.67125470",
    "longitude": "24.19646130",
    "type": "department",
    "timezone": "Europe/Bucharest",
    "CountryID": 181
  },
  {
    "id": 4751,
    "name": "Mehedinți",
    "iso2": "MH",
    "native": "Mehedinți",
    "latitude": "44.60349080",
    "longitude": "23.05804190",
    "type": "department",
    "timezone": "Europe/Bucharest",
    "CountryID": 181
  },
  {
    "id": 4915,
    "name": "Mureș",
    "iso2": "MS",
    "native": "Mureș",
    "latitude": "45.93865370",
    "longitude": "23.29493160",
    "type": "department",
    "timezone": "Europe/Bucharest",
    "CountryID": 181
  },
  {
    "id": 4731,
    "name": "Neamț",
    "iso2": "NT",
    "native": "Neamț",
    "latitude": "46.99100820",
    "longitude": "26.51348130",
    "type": "department",
    "timezone": "Europe/Bucharest",
    "CountryID": 181
  },
  {
    "id": 4738,
    "name": "Olt",
    "iso2": "OT",
    "native": "Olt",
    "latitude": "44.29232050",
    "longitude": "24.46630720",
    "type": "department",
    "timezone": "Europe/Bucharest",
    "CountryID": 181
  },
  {
    "id": 4729,
    "name": "Prahova",
    "iso2": "PH",
    "native": "Prahova",
    "latitude": "45.10875460",
    "longitude": "26.03783490",
    "type": "department",
    "timezone": "Europe/Bucharest",
    "CountryID": 181
  },
  {
    "id": 4741,
    "name": "Sălaj",
    "iso2": "SJ",
    "native": "Sălaj",
    "latitude": "47.15618680",
    "longitude": "23.01919230",
    "type": "department",
    "timezone": "Europe/Bucharest",
    "CountryID": 181
  },
  {
    "id": 4746,
    "name": "Satu Mare",
    "iso2": "SM",
    "native": "O iapă",
    "latitude": "47.78917630",
    "longitude": "22.87255980",
    "type": "department",
    "timezone": "Europe/Bucharest",
    "CountryID": 181
  },
  {
    "id": 4755,
    "name": "Sibiu",
    "iso2": "SB",
    "native": "Sibiu",
    "latitude": "45.88879600",
    "longitude": "24.23742600",
    "type": "department",
    "timezone": "Europe/Bucharest",
    "CountryID": 181
  },
  {
    "id": 4720,
    "name": "Suceava",
    "iso2": "SV",
    "native": "Suceava",
    "latitude": "47.53265340",
    "longitude": "25.83459390",
    "type": "department",
    "timezone": "Europe/Bucharest",
    "CountryID": 181
  },
  {
    "id": 4728,
    "name": "Teleorman",
    "iso2": "TR",
    "native": "Teleorman",
    "latitude": "44.06848760",
    "longitude": "25.19104500",
    "type": "department",
    "timezone": "Europe/Bucharest",
    "CountryID": 181
  },
  {
    "id": 4748,
    "name": "Timiș",
    "iso2": "TM",
    "native": "Timiș",
    "latitude": "45.63984000",
    "longitude": "21.25992920",
    "type": "department",
    "timezone": "Europe/Bucharest",
    "CountryID": 181
  },
  {
    "id": 4727,
    "name": "Tulcea",
    "iso2": "TL",
    "native": "Tulcea",
    "latitude": "45.04137690",
    "longitude": "28.89732900",
    "type": "department",
    "timezone": "Europe/Bucharest",
    "CountryID": 181
  },
  {
    "id": 4757,
    "name": "Vâlcea",
    "iso2": "VL",
    "native": "Vâlcea",
    "latitude": "45.04045360",
    "longitude": "24.15387190",
    "type": "department",
    "timezone": "Europe/Bucharest",
    "CountryID": 181
  },
  {
    "id": 4752,
    "name": "Vaslui",
    "iso2": "VS",
    "native": "Vaslui",
    "latitude": "46.49684700",
    "longitude": "27.80367510",
    "type": "department",
    "timezone": "Europe/Bucharest",
    "CountryID": 181
  },
  {
    "id": 4758,
    "name": "Vrancea",
    "iso2": "VN",
    "native": "Vrancea",
    "latitude": "45.78870880",
    "longitude": "26.88380300",
    "type": "department",
    "timezone": "Europe/Bucharest",
    "CountryID": 181
  }
]