[
  {
    "id": 1095,
    "name": "Carlow",
    "iso2": "CW",
    "native": "Carlow",
    "latitude": "52.69078870",
    "longitude": "-6.82514520",
    "type": "county",
    "timezone": "Europe/Dublin",
    "CountryID": 105
  },
  {
    "id": 1088,
    "name": "Cavan",
    "iso2": "CN",
    "native": "Cavan",
    "latitude": "53.99110420",
    "longitude": "-7.36031190",
    "type": "county",
    "timezone": "Europe/Dublin",
    "CountryID": 105
  },
  {
    "id": 1091,
    "name": "Clare",
    "iso2": "CE",
    "native": "Clare",
    "latitude": "53.34549370",
    "longitude": "-8.98605340",
    "type": "county",
    "timezone": "Europe/Dublin",
    "CountryID": 105
  },
  {
    "id": 1087,
    "name": "Connacht",
    "iso2": "C",
    "native": "Connacht",
    "latitude": "53.72102780",
    "longitude": "-8.92525600",
    "type": "province",
    "timezone": "Europe/Dublin",
    "CountryID": 105
  },
  {
    "id": 1074,
    "name": "Cork",
    "iso2": "CO",
    "native": "Cork",
    "latitude": "51.89851430",
    "longitude": "-8.47560350",
    "type": "county",
    "timezone": "Europe/Dublin",
    "CountryID": 105
  },
  {
    "id": 1071,
    "name": "Donegal",
    "iso2": "DL",
    "native": "Donegal",
    "latitude": "54.65489930",
    "longitude": "-8.10409670",
    "type": "county",
    "timezone": "Europe/Dublin",
    "CountryID": 105
  },
  {
    "id": 1072,
    "name": "Dublin",
    "iso2": "D",
    "native": "Dublin",
    "latitude": "53.34980530",
    "longitude": "-6.26030970",
    "type": "county",
    "timezone": "Europe/Dublin",
    "CountryID": 105
  },
  {
    "id": 1079,
    "name": "Galway",
    "iso2": "G",
    "native": "Galway",
    "latitude": "53.27441220",
    "longitude": "-9.04906010",
    "type": "county",
    "timezone": "Europe/Dublin",
    "CountryID": 105
  },
  {
    "id": 1077,
    "name": "Kerry",
    "iso2": "KY",
    "native": "Kerry",
    "latitude": "52.14533450",
    "longitude": "-9.51740110",
    "type": "county",
    "timezone": "Europe/Dublin",
    "CountryID": 105
  },
  {
    "id": 1082,
    "name": "Kildare",
    "iso2": "KE",
    "native": "Kildare",
    "latitude": "53.15436450",
    "longitude": "-6.81844230",
    "type": "county",
    "timezone": "Europe/Dublin",
    "CountryID": 105
  },
  {
    "id": 1090,
    "name": "Kilkenny",
    "iso2": "KK",
    "native": "Kilkenny",
    "latitude": "52.56870980",
    "longitude": "-7.18898310",
    "type": "county",
    "timezone": "Europe/Dublin",
    "CountryID": 105
  },
  {
    "id": 1096,
    "name": "Laois",
    "iso2": "LS",
    "native": "Laois",
    "latitude": "52.99845750",
    "longitude": "-7.39803380",
    "type": "county",
    "timezone": "Europe/Dublin",
    "CountryID": 105
  },
  {
    "id": 1073,
    "name": "Leinster",
    "iso2": "L",
    "native": "Leinster",
    "latitude": "53.11846500",
    "longitude": "-6.99181830",
    "type": "province",
    "timezone": "Europe/Dublin",
    "CountryID": 105
  },
  {
    "id": 5345,
    "name": "Leitrim",
    "iso2": "LM",
    "native": "Leitrim",
    "latitude": "54.14016220",
    "longitude": "-8.05247820",
    "type": "county",
    "timezone": "Europe/Dublin",
    "CountryID": 105
  },
  {
    "id": 1094,
    "name": "Limerick",
    "iso2": "LK",
    "native": "Limerick",
    "latitude": "52.51883160",
    "longitude": "-8.79583470",
    "type": "county",
    "timezone": "Europe/Dublin",
    "CountryID": 105
  },
  {
    "id": 1076,
    "name": "Longford",
    "iso2": "LD",
    "native": "Longford",
    "latitude": "53.72749820",
    "longitude": "-7.79315270",
    "type": "county",
    "timezone": "Europe/Dublin",
    "CountryID": 105
  },
  {
    "id": 1083,
    "name": "Louth",
    "iso2": "LH",
    "native": "Louth",
    "latitude": "53.90628480",
    "longitude": "-6.53205020",
    "type": "county",
    "timezone": "Europe/Dublin",
    "CountryID": 105
  },
  {
    "id": 1084,
    "name": "Mayo",
    "iso2": "MO",
    "native": "Mayo",
    "latitude": "53.90870560",
    "longitude": "-9.29830490",
    "type": "county",
    "timezone": "Europe/Dublin",
    "CountryID": 105
  },
  {
    "id": 1092,
    "name": "Meath",
    "iso2": "MH",
    "native": "Meath",
    "latitude": "53.64975140",
    "longitude": "-6.58842450",
    "type": "county",
    "timezone": "Europe/Dublin",
    "CountryID": 105
  },
  {
    "id": 1075,
    "name": "Monaghan",
    "iso2": "MN",
    "native": "Monaghan",
    "latitude": "54.24920460",
    "longitude": "-6.96831320",
    "type": "county",
    "timezone": "Europe/Dublin",
    "CountryID": 105
  },
  {
    "id": 1080,
    "name": "Munster",
    "iso2": "M",
    "native": "Munster",
    "latitude": "52.30762160",
    "longitude": "-8.57089730",
    "type": "province",
    "timezone": "Europe/Dublin",
    "CountryID": 105
  },
  {
    "id": 1078,
    "name": "Offaly",
    "iso2": "OY",
    "native": "Offaly",
    "latitude": "53.13617220",
    "longitude": "-7.81034080",
    "type": "county",
    "timezone": "Europe/Dublin",
    "CountryID": 105
  },
  {
    "id": 1081,
    "name": "Roscommon",
    "iso2": "RN",
    "native": "Roscommon",
    "latitude": "53.69826950",
    "longitude": "-8.21825080",
    "type": "county",
    "timezone": "Europe/Dublin",
    "CountryID": 105
  },
  {
    "id": 1070,
    "name": "Sligo",
    "iso2": "SO",
    "native": "Sligo",
    "latitude": "54.19298610",
    "longitude": "-8.73054270",
    "type": "county",
    "timezone": "Europe/Dublin",
    "CountryID": 105
  },
  {
    "id": 1069,
    "name": "Tipperary",
    "iso2": "TA",
    "native": "Tipperary",
    "latitude": "52.47378940",
    "longitude": "-8.16185140",
    "type": "county",
    "timezone": "Europe/Dublin",
    "CountryID": 105
  },
  {
    "id": 1086,
    "name": "Ulster",
    "iso2": "U",
    "native": "Ulster",
    "latitude": "54.09346590",
    "longitude": "-7.19897940",
    "type": "province",
    "timezone": "Europe/Dublin",
    "CountryID": 105
  },
  {
    "id": 1089,
    "name": "Waterford",
    "iso2": "WD",
    "native": "Waterford",
    "latitude": "52.15091310",
    "longitude": "-7.65779820",
    "type": "county",
    "timezone": "Europe/Dublin",
    "CountryID": 105
  },
  {
    "id": 1097,
    "name": "Westmeath",
    "iso2": "WH",
    "native": "Westmeath",
    "latitude": "53.55779020",
    "longitude": "-7.34785580",
    "type": "county",
    "timezone": "Europe/Dublin",
    "CountryID": 105
  },
  {
    "id": 1093,
    "name": "Wexford",
    "iso2": "WX",
    "native": "Wexford",
    "latitude": "52.46018740",
    "longitude": "-6.60651550",
    "type": "county",
    "timezone": "Europe/Dublin",
    "CountryID": 105
  },
  {
    "id": 1085,
    "name": "Wicklow",
    "iso2": "WW",
    "native": "Wicklow",
    "latitude": "52.95820990",
    "longitude": "-6.38142080",
    "type": "county",
    "timezone": "Europe/Dublin",
    "CountryID": 105
  }
]