[
  {
    "id": 85788,
    "name": "Babiak",
    "latitude": "52.34530000",
    "longitude": "18.66663000",
    "CountryID": 176,
    "StateID": 1634
  },
  {
    "id": 85805,
    "name": "Baranów",
    "latitude": "51.26342000",
    "longitude": "18.00470000",
    "CountryID": 176,
    "StateID": 1634
  },
  {
    "id": 85803,
    "name": "Baranowo",
    "latitude": "52.43525000",
    "longitude": "16.78631000",
    "CountryID": 176,
    "StateID": 1634
  },
  {
    "id": 85847,
    "name": "Białośliwie",
    "latitude": "53.10461000",
    "longitude": "17.12533000",
    "CountryID": 176,
    "StateID": 1634
  },
  {
    "id": 85881,
    "name": "Blizanów",
    "latitude": "51.90372000",
    "longitude": "18.01003000",
    "CountryID": 176,
    "StateID": 1634
  },
  {
    "id": 85903,
    "name": "Bojanowo",
    "latitude": "51.70749000",
    "longitude": "16.74827000",
    "CountryID": 176,
    "StateID": 1634
  },
  {
    "id": 85904,
    "name": "Bojanowo Stare",
    "latitude": "51.99302000",
    "longitude": "16.58369000",
    "CountryID": 176,
    "StateID": 1634
  },
  {
    "id": 85919,
    "name": "Borek Wielkopolski",
    "latitude": "51.91674000",
    "longitude": "17.24133000",
    "CountryID": 176,
    "StateID": 1634
  },
  {
    "id": 85934,
    "name": "Bralin",
    "latitude": "51.28581000",
    "longitude": "17.90325000",
    "CountryID": 176,
    "StateID": 1634
  },
  {
    "id": 85939,
    "name": "Brdów",
    "latitude": "52.35390000",
    "longitude": "18.72980000",
    "CountryID": 176,
    "StateID": 1634
  },
  {
    "id": 85941,
    "name": "Brenno",
    "latitude": "51.92257000",
    "longitude": "16.21488000",
    "CountryID": 176,
    "StateID": 1634
  },
  {
    "id": 85944,
    "name": "Brodnica",
    "latitude": "52.14123000",
    "longitude": "16.89096000",
    "CountryID": 176,
    "StateID": 1634
  },
  {
    "id": 85952,
    "name": "Broniszewice",
    "latitude": "51.96696000",
    "longitude": "17.81648000",
    "CountryID": 176,
    "StateID": 1634
  },
  {
    "id": 85954,
    "name": "Brudzew",
    "latitude": "52.09949000",
    "longitude": "18.60432000",
    "CountryID": 176,
    "StateID": 1634
  },
  {
    "id": 85984,
    "name": "Budzyń",
    "latitude": "52.88954000",
    "longitude": "16.98812000",
    "CountryID": 176,
    "StateID": 1634
  },
  {
    "id": 85988,
    "name": "Buk",
    "latitude": "52.35532000",
    "longitude": "16.51958000",
    "CountryID": 176,
    "StateID": 1634
  },
  {
    "id": 86041,
    "name": "Chocz",
    "latitude": "51.97642000",
    "longitude": "17.86995000",
    "CountryID": 176,
    "StateID": 1634
  },
  {
    "id": 86047,
    "name": "Chodów",
    "latitude": "52.24961000",
    "longitude": "19.01218000",
    "CountryID": 176,
    "StateID": 1634
  },
  {
    "id": 86046,
    "name": "Chodzież",
    "latitude": "52.99505000",
    "longitude": "16.91980000",
    "CountryID": 176,
    "StateID": 1634
  },
  {
    "id": 86063,
    "name": "Chrzypsko Wielkie",
    "latitude": "52.62817000",
    "longitude": "16.22852000",
    "CountryID": 176,
    "StateID": 1634
  },
  {
    "id": 86099,
    "name": "Czajków",
    "latitude": "51.49197000",
    "longitude": "18.32726000",
    "CountryID": 176,
    "StateID": 1634
  },
  {
    "id": 86102,
    "name": "Czapury",
    "latitude": "52.31719000",
    "longitude": "16.91268000",
    "CountryID": 176,
    "StateID": 1634
  },
  {
    "id": 86111,
    "name": "Czarnków",
    "latitude": "52.90214000",
    "longitude": "16.56413000",
    "CountryID": 176,
    "StateID": 1634
  },
  {
    "id": 86125,
    "name": "Czempiń",
    "latitude": "52.14404000",
    "longitude": "16.76408000",
    "CountryID": 176,
    "StateID": 1634
  },
  {
    "id": 86128,
    "name": "Czermin",
    "latitude": "51.95008000",
    "longitude": "17.74957000",
    "CountryID": 176,
    "StateID": 1634
  },
  {
    "id": 86134,
    "name": "Czerniejewo",
    "latitude": "52.42640000",
    "longitude": "17.48925000",
    "CountryID": 176,
    "StateID": 1634
  },
  {
    "id": 86143,
    "name": "Czerwonak",
    "latitude": "52.46459000",
    "longitude": "16.98169000",
    "CountryID": 176,
    "StateID": 1634
  },
  {
    "id": 86234,
    "name": "Dąbie",
    "latitude": "52.08668000",
    "longitude": "18.82250000",
    "CountryID": 176,
    "StateID": 1634
  },
  {
    "id": 86156,
    "name": "Damasławek",
    "latitude": "52.83979000",
    "longitude": "17.50062000",
    "CountryID": 176,
    "StateID": 1634
  },
  {
    "id": 86159,
    "name": "Daszewice",
    "latitude": "52.30002000",
    "longitude": "16.95723000",
    "CountryID": 176,
    "StateID": 1634
  },
  {
    "id": 86169,
    "name": "Dobra",
    "latitude": "51.91664000",
    "longitude": "18.61556000",
    "CountryID": 176,
    "StateID": 1634
  },
  {
    "id": 86178,
    "name": "Dobrzyca",
    "latitude": "51.86663000",
    "longitude": "17.60336000",
    "CountryID": 176,
    "StateID": 1634
  },
  {
    "id": 86182,
    "name": "Dolsk",
    "latitude": "51.98180000",
    "longitude": "17.06273000",
    "CountryID": 176,
    "StateID": 1634
  },
  {
    "id": 86188,
    "name": "Dominowo",
    "latitude": "52.29158000",
    "longitude": "17.35754000",
    "CountryID": 176,
    "StateID": 1634
  },
  {
    "id": 86189,
    "name": "Dopiewo",
    "latitude": "52.35726000",
    "longitude": "16.67562000",
    "CountryID": 176,
    "StateID": 1634
  },
  {
    "id": 86191,
    "name": "Doruchów",
    "latitude": "51.41719000",
    "longitude": "18.07697000",
    "CountryID": 176,
    "StateID": 1634
  },
  {
    "id": 86194,
    "name": "Drawsko",
    "latitude": "52.85421000",
    "longitude": "16.03125000",
    "CountryID": 176,
    "StateID": 1634
  },
  {
    "id": 86208,
    "name": "Duszniki",
    "latitude": "52.44691000",
    "longitude": "16.40602000",
    "CountryID": 176,
    "StateID": 1634
  },
  {
    "id": 86304,
    "name": "Gizałki",
    "latitude": "52.04267000",
    "longitude": "17.76936000",
    "CountryID": 176,
    "StateID": 1634
  },
  {
    "id": 86313,
    "name": "Gniezno",
    "latitude": "52.53481000",
    "longitude": "17.58259000",
    "CountryID": 176,
    "StateID": 1634
  },
  {
    "id": 86328,
    "name": "Golina",
    "latitude": "52.24315000",
    "longitude": "18.09268000",
    "CountryID": 176,
    "StateID": 1634
  },
  {
    "id": 86354,
    "name": "Gołańcz",
    "latitude": "52.94326000",
    "longitude": "17.29995000",
    "CountryID": 176,
    "StateID": 1634
  },
  {
    "id": 86357,
    "name": "Gołuchów",
    "latitude": "51.85036000",
    "longitude": "17.93140000",
    "CountryID": 176,
    "StateID": 1634
  },
  {
    "id": 86340,
    "name": "Gorzyce Wielkie",
    "latitude": "51.63725000",
    "longitude": "17.72953000",
    "CountryID": 176,
    "StateID": 1634
  },
  {
    "id": 86347,
    "name": "Gostyń",
    "latitude": "51.88247000",
    "longitude": "17.01225000",
    "CountryID": 176,
    "StateID": 1634
  },
  {
    "id": 86369,
    "name": "Grabów nad Prosną",
    "latitude": "51.50596000",
    "longitude": "18.11929000",
    "CountryID": 176,
    "StateID": 1634
  },
  {
    "id": 86372,
    "name": "Granowo",
    "latitude": "52.22244000",
    "longitude": "16.52859000",
    "CountryID": 176,
    "StateID": 1634
  },
  {
    "id": 86374,
    "name": "Grodziec",
    "latitude": "52.03855000",
    "longitude": "18.05972000",
    "CountryID": 176,
    "StateID": 1634
  },
  {
    "id": 86376,
    "name": "Grodzisk Wielkopolski",
    "latitude": "52.22762000",
    "longitude": "16.36534000",
    "CountryID": 176,
    "StateID": 1634
  },
  {
    "id": 86394,
    "name": "Grzegorzew",
    "latitude": "52.20177000",
    "longitude": "18.73409000",
    "CountryID": 176,
    "StateID": 1634
  },
  {
    "id": 86483,
    "name": "Jabłonna",
    "latitude": "52.20598000",
    "longitude": "16.20741000",
    "CountryID": 176,
    "StateID": 1634
  },
  {
    "id": 86496,
    "name": "Janków Przygodzki",
    "latitude": "51.59808000",
    "longitude": "17.78824000",
    "CountryID": 176,
    "StateID": 1634
  },
  {
    "id": 86505,
    "name": "Jaraczewo",
    "latitude": "51.96854000",
    "longitude": "17.29707000",
    "CountryID": 176,
    "StateID": 1634
  },
  {
    "id": 86509,
    "name": "Jarocin",
    "latitude": "51.97266000",
    "longitude": "17.50256000",
    "CountryID": 176,
    "StateID": 1634
  },
  {
    "id": 86522,
    "name": "Jastrowie",
    "latitude": "53.42048000",
    "longitude": "16.81756000",
    "CountryID": 176,
    "StateID": 1634
  },
  {
    "id": 86573,
    "name": "Jutrosin",
    "latitude": "51.65009000",
    "longitude": "17.16957000",
    "CountryID": 176,
    "StateID": 1634
  },
  {
    "id": 86580,
    "name": "Kaczory",
    "latitude": "53.10348000",
    "longitude": "16.88169000",
    "CountryID": 176,
    "StateID": 1634
  },
  {
    "id": 86586,
    "name": "Kalisz",
    "latitude": "51.76109000",
    "longitude": "18.09102000",
    "CountryID": 176,
    "StateID": 1634
  },
  {
    "id": 86593,
    "name": "Kamieniec",
    "latitude": "52.16614000",
    "longitude": "16.46164000",
    "CountryID": 176,
    "StateID": 1634
  },
  {
    "id": 86622,
    "name": "Kawęczyn",
    "latitude": "51.90923000",
    "longitude": "18.53102000",
    "CountryID": 176,
    "StateID": 1634
  },
  {
    "id": 86625,
    "name": "Kazimierz Biskupi",
    "latitude": "52.31100000",
    "longitude": "18.16581000",
    "CountryID": 176,
    "StateID": 1634
  },
  {
    "id": 86630,
    "name": "Kaźmierz",
    "latitude": "52.51309000",
    "longitude": "16.58403000",
    "CountryID": 176,
    "StateID": 1634
  },
  {
    "id": 86856,
    "name": "Kępno",
    "latitude": "51.27840000",
    "longitude": "17.98908000",
    "CountryID": 176,
    "StateID": 1634
  },
  {
    "id": 86641,
    "name": "Kiszkowo",
    "latitude": "52.58871000",
    "longitude": "17.26630000",
    "CountryID": 176,
    "StateID": 1634
  },
  {
    "id": 86643,
    "name": "Kleczew",
    "latitude": "52.37057000",
    "longitude": "18.17714000",
    "CountryID": 176,
    "StateID": 1634
  },
  {
    "id": 86647,
    "name": "Kleszczewo",
    "latitude": "52.33377000",
    "longitude": "17.17163000",
    "CountryID": 176,
    "StateID": 1634
  },
  {
    "id": 86861,
    "name": "Kłecko",
    "latitude": "52.63181000",
    "longitude": "17.43075000",
    "CountryID": 176,
    "StateID": 1634
  },
  {
    "id": 86865,
    "name": "Kłodawa",
    "latitude": "52.25447000",
    "longitude": "18.91352000",
    "CountryID": 176,
    "StateID": 1634
  },
  {
    "id": 86663,
    "name": "Kobyla Góra",
    "latitude": "51.37923000",
    "longitude": "17.83811000",
    "CountryID": 176,
    "StateID": 1634
  },
  {
    "id": 86666,
    "name": "Kobylin",
    "latitude": "51.71645000",
    "longitude": "17.22682000",
    "CountryID": 176,
    "StateID": 1634
  },
  {
    "id": 86667,
    "name": "Kobylnica",
    "latitude": "52.44597000",
    "longitude": "17.07644000",
    "CountryID": 176,
    "StateID": 1634
  },
  {
    "id": 86740,
    "name": "Kołaczkowo",
    "latitude": "52.21739000",
    "longitude": "17.62413000",
    "CountryID": 176,
    "StateID": 1634
  },
  {
    "id": 86745,
    "name": "Koło",
    "latitude": "52.20024000",
    "longitude": "18.63865000",
    "CountryID": 176,
    "StateID": 1634
  },
  {
    "id": 86686,
    "name": "Komorniki",
    "latitude": "52.33870000",
    "longitude": "16.81063000",
    "CountryID": 176,
    "StateID": 1634
  },
  {
    "id": 86689,
    "name": "Konary",
    "latitude": "51.65690000",
    "longitude": "17.04185000",
    "CountryID": 176,
    "StateID": 1634
  },
  {
    "id": 86693,
    "name": "Konin",
    "latitude": "52.22338000",
    "longitude": "18.25121000",
    "CountryID": 176,
    "StateID": 1634
  },
  {
    "id": 86851,
    "name": "Kórnik",
    "latitude": "52.24772000",
    "longitude": "17.08949000",
    "CountryID": 176,
    "StateID": 1634
  },
  {
    "id": 86752,
    "name": "Kościan",
    "latitude": "52.08829000",
    "longitude": "16.64866000",
    "CountryID": 176,
    "StateID": 1634
  },
  {
    "id": 86754,
    "name": "Kościelec",
    "latitude": "52.17425000",
    "longitude": "18.57067000",
    "CountryID": 176,
    "StateID": 1634
  },
  {
    "id": 86714,
    "name": "Kostrzyn",
    "latitude": "52.39847000",
    "longitude": "17.22811000",
    "CountryID": 176,
    "StateID": 1634
  },
  {
    "id": 86723,
    "name": "Kotlin",
    "latitude": "51.91913000",
    "longitude": "17.64825000",
    "CountryID": 176,
    "StateID": 1634
  },
  {
    "id": 86758,
    "name": "Koźmin Wielkopolski",
    "latitude": "51.82712000",
    "longitude": "17.45391000",
    "CountryID": 176,
    "StateID": 1634
  },
  {
    "id": 86759,
    "name": "Koźminek",
    "latitude": "51.79874000",
    "longitude": "18.33893000",
    "CountryID": 176,
    "StateID": 1634
  },
  {
    "id": 86762,
    "name": "Krajenka",
    "latitude": "53.29759000",
    "longitude": "16.99079000",
    "CountryID": 176,
    "StateID": 1634
  },
  {
    "id": 86765,
    "name": "Kramsk",
    "latitude": "52.26469000",
    "longitude": "18.42407000",
    "CountryID": 176,
    "StateID": 1634
  },
  {
    "id": 86775,
    "name": "Kraszewice",
    "latitude": "51.51868000",
    "longitude": "18.21997000",
    "CountryID": 176,
    "StateID": 1634
  },
  {
    "id": 86779,
    "name": "Krobia",
    "latitude": "51.77405000",
    "longitude": "16.98237000",
    "CountryID": 176,
    "StateID": 1634
  },
  {
    "id": 86783,
    "name": "Krosno",
    "latitude": "52.22357000",
    "longitude": "16.83251000",
    "CountryID": 176,
    "StateID": 1634
  },
  {
    "id": 86785,
    "name": "Krotoszyn",
    "latitude": "51.69868000",
    "longitude": "17.43738000",
    "CountryID": 176,
    "StateID": 1634
  },
  {
    "id": 86806,
    "name": "Krzemieniewo",
    "latitude": "51.85905000",
    "longitude": "16.83354000",
    "CountryID": 176,
    "StateID": 1634
  },
  {
    "id": 86814,
    "name": "Krzykosy",
    "latitude": "52.11041000",
    "longitude": "17.37411000",
    "CountryID": 176,
    "StateID": 1634
  },
  {
    "id": 86820,
    "name": "Krzywiń",
    "latitude": "51.96296000",
    "longitude": "16.81985000",
    "CountryID": 176,
    "StateID": 1634
  },
  {
    "id": 86821,
    "name": "Krzyż Wielkopolski",
    "latitude": "52.88097000",
    "longitude": "16.01116000",
    "CountryID": 176,
    "StateID": 1634
  },
  {
    "id": 86829,
    "name": "Książ Wielkopolski",
    "latitude": "52.06167000",
    "longitude": "17.23952000",
    "CountryID": 176,
    "StateID": 1634
  },
  {
    "id": 86845,
    "name": "Kuślin",
    "latitude": "52.36386000",
    "longitude": "16.31538000",
    "CountryID": 176,
    "StateID": 1634
  },
  {
    "id": 86850,
    "name": "Kwilcz",
    "latitude": "52.55506000",
    "longitude": "16.08562000",
    "CountryID": 176,
    "StateID": 1634
  },
  {
    "id": 86976,
    "name": "Lądek",
    "latitude": "52.20929000",
    "longitude": "17.92994000",
    "CountryID": 176,
    "StateID": 1634
  },
  {
    "id": 86883,
    "name": "Leszno",
    "latitude": "51.84034000",
    "longitude": "16.57494000",
    "CountryID": 176,
    "StateID": 1634
  },
  {
    "id": 86898,
    "name": "Licheń Stary",
    "latitude": "52.31226000",
    "longitude": "18.35515000",
    "CountryID": 176,
    "StateID": 1634
  },
  {
    "id": 86910,
    "name": "Lipka",
    "latitude": "53.49601000",
    "longitude": "17.25085000",
    "CountryID": 176,
    "StateID": 1634
  },
  {
    "id": 86918,
    "name": "Lipno",
    "latitude": "51.91722000",
    "longitude": "16.56708000",
    "CountryID": 176,
    "StateID": 1634
  },
  {
    "id": 86927,
    "name": "Lisków",
    "latitude": "51.83313000",
    "longitude": "18.39789000",
    "CountryID": 176,
    "StateID": 1634
  },
  {
    "id": 86933,
    "name": "Lubasz",
    "latitude": "52.85213000",
    "longitude": "16.52344000",
    "CountryID": 176,
    "StateID": 1634
  },
  {
    "id": 86956,
    "name": "Luboń",
    "latitude": "52.34705000",
    "longitude": "16.89267000",
    "CountryID": 176,
    "StateID": 1634
  },
  {
    "id": 86973,
    "name": "Lwówek",
    "latitude": "52.44798000",
    "longitude": "16.18106000",
    "CountryID": 176,
    "StateID": 1634
  },
  {
    "id": 88820,
    "name": "Łęka Opatowska",
    "latitude": "51.21231000",
    "longitude": "18.10710000",
    "CountryID": 176,
    "StateID": 1634
  },
  {
    "id": 88781,
    "name": "Łobżenica",
    "latitude": "53.26244000",
    "longitude": "17.25574000",
    "CountryID": 176,
    "StateID": 1634
  },
  {
    "id": 88801,
    "name": "Łubowo",
    "latitude": "52.51168000",
    "longitude": "17.45333000",
    "CountryID": 176,
    "StateID": 1634
  },
  {
    "id": 86985,
    "name": "Malanów",
    "latitude": "51.95358000",
    "longitude": "18.39128000",
    "CountryID": 176,
    "StateID": 1634
  },
  {
    "id": 86992,
    "name": "Margonin",
    "latitude": "52.97335000",
    "longitude": "17.09464000",
    "CountryID": 176,
    "StateID": 1634
  },
  {
    "id": 87015,
    "name": "Miasteczko Krajeńskie",
    "latitude": "53.09784000",
    "longitude": "17.00478000",
    "CountryID": 176,
    "StateID": 1634
  },
  {
    "id": 87029,
    "name": "Miedzichowo",
    "latitude": "52.37581000",
    "longitude": "15.95876000",
    "CountryID": 176,
    "StateID": 1634
  },
  {
    "id": 87061,
    "name": "Międzychód",
    "latitude": "52.59882000",
    "longitude": "15.89696000",
    "CountryID": 176,
    "StateID": 1634
  },
  {
    "id": 87034,
    "name": "Miejska Górka",
    "latitude": "51.65573000",
    "longitude": "16.95826000",
    "CountryID": 176,
    "StateID": 1634
  },
  {
    "id": 87036,
    "name": "Mieleszyn",
    "latitude": "52.66868000",
    "longitude": "17.49779000",
    "CountryID": 176,
    "StateID": 1634
  },
  {
    "id": 87041,
    "name": "Mieścisko",
    "latitude": "52.74357000",
    "longitude": "17.33213000",
    "CountryID": 176,
    "StateID": 1634
  },
  {
    "id": 87045,
    "name": "Mikstat",
    "latitude": "51.53236000",
    "longitude": "17.97378000",
    "CountryID": 176,
    "StateID": 1634
  },
  {
    "id": 87074,
    "name": "Miłosław",
    "latitude": "52.20318000",
    "longitude": "17.48955000",
    "CountryID": 176,
    "StateID": 1634
  },
  {
    "id": 87094,
    "name": "Mosina",
    "latitude": "52.24543000",
    "longitude": "16.84709000",
    "CountryID": 176,
    "StateID": 1634
  },
  {
    "id": 87113,
    "name": "Murowana Goślina",
    "latitude": "52.57463000",
    "longitude": "17.00933000",
    "CountryID": 176,
    "StateID": 1634
  },
  {
    "id": 87144,
    "name": "Nekla",
    "latitude": "52.36496000",
    "longitude": "17.41329000",
    "CountryID": 176,
    "StateID": 1634
  },
  {
    "id": 87151,
    "name": "Niechanowo",
    "latitude": "52.46527000",
    "longitude": "17.67812000",
    "CountryID": 176,
    "StateID": 1634
  },
  {
    "id": 87188,
    "name": "Nowe Miasto nad Wartą",
    "latitude": "52.09007000",
    "longitude": "17.41114000",
    "CountryID": 176,
    "StateID": 1634
  },
  {
    "id": 87191,
    "name": "Nowe Skalmierzyce",
    "latitude": "51.71038000",
    "longitude": "17.99337000",
    "CountryID": 176,
    "StateID": 1634
  },
  {
    "id": 87208,
    "name": "Nowy Tomyśl",
    "latitude": "52.31950000",
    "longitude": "16.12844000",
    "CountryID": 176,
    "StateID": 1634
  },
  {
    "id": 87216,
    "name": "Oborniki",
    "latitude": "52.64739000",
    "longitude": "16.81406000",
    "CountryID": 176,
    "StateID": 1634
  },
  {
    "id": 87221,
    "name": "Obrzycko",
    "latitude": "52.70338000",
    "longitude": "16.52807000",
    "CountryID": 176,
    "StateID": 1634
  },
  {
    "id": 87228,
    "name": "Odolanów",
    "latitude": "51.57419000",
    "longitude": "17.67434000",
    "CountryID": 176,
    "StateID": 1634
  },
  {
    "id": 87234,
    "name": "Okonek",
    "latitude": "53.53618000",
    "longitude": "16.85158000",
    "CountryID": 176,
    "StateID": 1634
  },
  {
    "id": 87252,
    "name": "Olszówka",
    "latitude": "52.19030000",
    "longitude": "18.86258000",
    "CountryID": 176,
    "StateID": 1634
  },
  {
    "id": 87254,
    "name": "Opalenica",
    "latitude": "52.30887000",
    "longitude": "16.41278000",
    "CountryID": 176,
    "StateID": 1634
  },
  {
    "id": 87257,
    "name": "Opatów",
    "latitude": "51.21463000",
    "longitude": "18.14615000",
    "CountryID": 176,
    "StateID": 1634
  },
  {
    "id": 87259,
    "name": "Opatówek",
    "latitude": "51.73989000",
    "longitude": "18.21653000",
    "CountryID": 176,
    "StateID": 1634
  },
  {
    "id": 87265,
    "name": "Orchowo",
    "latitude": "52.50938000",
    "longitude": "18.01578000",
    "CountryID": 176,
    "StateID": 1634
  },
  {
    "id": 87279,
    "name": "Osieczna",
    "latitude": "51.90420000",
    "longitude": "16.67862000",
    "CountryID": 176,
    "StateID": 1634
  },
  {
    "id": 87289,
    "name": "Osiek Mały",
    "latitude": "52.27630000",
    "longitude": "18.60234000",
    "CountryID": 176,
    "StateID": 1634
  },
  {
    "id": 87290,
    "name": "Osiek nad Notecią",
    "latitude": "53.12030000",
    "longitude": "17.29102000",
    "CountryID": 176,
    "StateID": 1634
  },
  {
    "id": 87297,
    "name": "Ostroróg",
    "latitude": "52.62650000",
    "longitude": "16.44988000",
    "CountryID": 176,
    "StateID": 1634
  },
  {
    "id": 87311,
    "name": "Ostrów Wielkopolski",
    "latitude": "51.65501000",
    "longitude": "17.80686000",
    "CountryID": 176,
    "StateID": 1634
  },
  {
    "id": 87301,
    "name": "Ostrowite",
    "latitude": "52.38199000",
    "longitude": "18.04470000",
    "CountryID": 176,
    "StateID": 1634
  },
  {
    "id": 87306,
    "name": "Ostrzeszów",
    "latitude": "51.42640000",
    "longitude": "17.93355000",
    "CountryID": 176,
    "StateID": 1634
  },
  {
    "id": 87336,
    "name": "Pakosław",
    "latitude": "51.61438000",
    "longitude": "17.05793000",
    "CountryID": 176,
    "StateID": 1634
  },
  {
    "id": 87340,
    "name": "Pamiątkowo",
    "latitude": "52.55334000",
    "longitude": "16.68094000",
    "CountryID": 176,
    "StateID": 1634
  },
  {
    "id": 87362,
    "name": "Pecna",
    "latitude": "52.18333000",
    "longitude": "16.80000000",
    "CountryID": 176,
    "StateID": 1634
  },
  {
    "id": 87861,
    "name": "Pępowo",
    "latitude": "51.76569000",
    "longitude": "17.12661000",
    "CountryID": 176,
    "StateID": 1634
  },
  {
    "id": 87364,
    "name": "Perzów",
    "latitude": "51.27625000",
    "longitude": "17.80970000",
    "CountryID": 176,
    "StateID": 1634
  },
  {
    "id": 87371,
    "name": "Piaski",
    "latitude": "51.88497000",
    "longitude": "17.07293000",
    "CountryID": 176,
    "StateID": 1634
  },
  {
    "id": 87403,
    "name": "Piła",
    "latitude": "53.15145000",
    "longitude": "16.73782000",
    "CountryID": 176,
    "StateID": 1634
  },
  {
    "id": 87406,
    "name": "Pleszew",
    "latitude": "51.89636000",
    "longitude": "17.78549000",
    "CountryID": 176,
    "StateID": 1634
  },
  {
    "id": 87407,
    "name": "Plewiska",
    "latitude": "52.36706000",
    "longitude": "16.80985000",
    "CountryID": 176,
    "StateID": 1634
  },
  {
    "id": 87409,
    "name": "Pniewy",
    "latitude": "52.50943000",
    "longitude": "16.25668000",
    "CountryID": 176,
    "StateID": 1634
  },
  {
    "id": 87410,
    "name": "Pobiedziska",
    "latitude": "52.47753000",
    "longitude": "17.28767000",
    "CountryID": 176,
    "StateID": 1634
  },
  {
    "id": 87420,
    "name": "Pogorzela",
    "latitude": "51.82220000",
    "longitude": "17.23017000",
    "CountryID": 176,
    "StateID": 1634
  },
  {
    "id": 87775,
    "name": "Połajewo",
    "latitude": "52.79923000",
    "longitude": "16.73347000",
    "CountryID": 176,
    "StateID": 1634
  },
  {
    "id": 87440,
    "name": "Poniec",
    "latitude": "51.76343000",
    "longitude": "16.80867000",
    "CountryID": 176,
    "StateID": 1634
  },
  {
    "id": 87770,
    "name": "Powidz",
    "latitude": "52.41362000",
    "longitude": "17.91926000",
    "CountryID": 176,
    "StateID": 1634
  },
  {
    "id": 87774,
    "name": "Poznań",
    "latitude": "52.40692000",
    "longitude": "16.92993000",
    "CountryID": 176,
    "StateID": 1634
  },
  {
    "id": 87807,
    "name": "Przedecz",
    "latitude": "52.33440000",
    "longitude": "18.89915000",
    "CountryID": 176,
    "StateID": 1634
  },
  {
    "id": 87813,
    "name": "Przemęt",
    "latitude": "52.00808000",
    "longitude": "16.30114000",
    "CountryID": 176,
    "StateID": 1634
  },
  {
    "id": 87824,
    "name": "Przygodzice",
    "latitude": "51.59195000",
    "longitude": "17.82412000",
    "CountryID": 176,
    "StateID": 1634
  },
  {
    "id": 87825,
    "name": "Przykona",
    "latitude": "51.98171000",
    "longitude": "18.61247000",
    "CountryID": 176,
    "StateID": 1634
  },
  {
    "id": 87850,
    "name": "Puszczykowo",
    "latitude": "52.28570000",
    "longitude": "16.84925000",
    "CountryID": 176,
    "StateID": 1634
  },
  {
    "id": 87858,
    "name": "Pyzdry",
    "latitude": "52.17056000",
    "longitude": "17.69005000",
    "CountryID": 176,
    "StateID": 1634
  },
  {
    "id": 87909,
    "name": "Rakoniewice",
    "latitude": "52.13906000",
    "longitude": "16.27346000",
    "CountryID": 176,
    "StateID": 1634
  },
  {
    "id": 87914,
    "name": "Raszków",
    "latitude": "51.71828000",
    "longitude": "17.72571000",
    "CountryID": 176,
    "StateID": 1634
  },
  {
    "id": 87919,
    "name": "Rawicz",
    "latitude": "51.60946000",
    "longitude": "16.85852000",
    "CountryID": 176,
    "StateID": 1634
  },
  {
    "id": 87943,
    "name": "Rogalinek",
    "latitude": "52.24945000",
    "longitude": "16.89989000",
    "CountryID": 176,
    "StateID": 1634
  },
  {
    "id": 87946,
    "name": "Rogoźno",
    "latitude": "52.75226000",
    "longitude": "16.99049000",
    "CountryID": 176,
    "StateID": 1634
  },
  {
    "id": 87957,
    "name": "Rokietnica",
    "latitude": "52.51245000",
    "longitude": "16.74570000",
    "CountryID": 176,
    "StateID": 1634
  },
  {
    "id": 87964,
    "name": "Rozdrażew",
    "latitude": "51.78218000",
    "longitude": "17.50491000",
    "CountryID": 176,
    "StateID": 1634
  },
  {
    "id": 87999,
    "name": "Rychtal",
    "latitude": "51.14533000",
    "longitude": "17.85132000",
    "CountryID": 176,
    "StateID": 1634
  },
  {
    "id": 88000,
    "name": "Rychwał",
    "latitude": "52.07149000",
    "longitude": "18.16510000",
    "CountryID": 176,
    "StateID": 1634
  },
  {
    "id": 88002,
    "name": "Ryczywół",
    "latitude": "52.81324000",
    "longitude": "16.83114000",
    "CountryID": 176,
    "StateID": 1634
  },
  {
    "id": 88005,
    "name": "Rydzyna",
    "latitude": "51.78651000",
    "longitude": "16.66761000",
    "CountryID": 176,
    "StateID": 1634
  },
  {
    "id": 88028,
    "name": "Rzgów Pierwszy",
    "latitude": "52.15134000",
    "longitude": "18.04976000",
    "CountryID": 176,
    "StateID": 1634
  },
  {
    "id": 88065,
    "name": "Siedlec",
    "latitude": "52.13781000",
    "longitude": "16.00279000",
    "CountryID": 176,
    "StateID": 1634
  },
  {
    "id": 88088,
    "name": "Sieraków",
    "latitude": "52.65134000",
    "longitude": "16.08047000",
    "CountryID": 176,
    "StateID": 1634
  },
  {
    "id": 88090,
    "name": "Sieroszewice",
    "latitude": "51.63347000",
    "longitude": "17.97200000",
    "CountryID": 176,
    "StateID": 1634
  },
  {
    "id": 88096,
    "name": "Skalmierzyce",
    "latitude": "51.70097000",
    "longitude": "17.96333000",
    "CountryID": 176,
    "StateID": 1634
  },
  {
    "id": 88109,
    "name": "Skoki",
    "latitude": "52.67222000",
    "longitude": "17.16107000",
    "CountryID": 176,
    "StateID": 1634
  },
  {
    "id": 88119,
    "name": "Skulsk",
    "latitude": "52.48200000",
    "longitude": "18.33112000",
    "CountryID": 176,
    "StateID": 1634
  },
  {
    "id": 88832,
    "name": "Ślesin",
    "latitude": "52.37039000",
    "longitude": "18.30644000",
    "CountryID": 176,
    "StateID": 1634
  },
  {
    "id": 88347,
    "name": "Słupca",
    "latitude": "52.28733000",
    "longitude": "17.87192000",
    "CountryID": 176,
    "StateID": 1634
  },
  {
    "id": 88350,
    "name": "Słupia pod Kępnem",
    "latitude": "51.23924000",
    "longitude": "18.04255000",
    "CountryID": 176,
    "StateID": 1634
  },
  {
    "id": 88834,
    "name": "Śmigiel",
    "latitude": "52.01339000",
    "longitude": "16.52704000",
    "CountryID": 176,
    "StateID": 1634
  },
  {
    "id": 88835,
    "name": "Śmiłowo",
    "latitude": "53.13647000",
    "longitude": "16.92075000",
    "CountryID": 176,
    "StateID": 1634
  },
  {
    "id": 88146,
    "name": "Sompolno",
    "latitude": "52.38832000",
    "longitude": "18.50282000",
    "CountryID": 176,
    "StateID": 1634
  },
  {
    "id": 88159,
    "name": "Sośnie",
    "latitude": "51.47315000",
    "longitude": "17.63383000",
    "CountryID": 176,
    "StateID": 1634
  },
  {
    "id": 88837,
    "name": "Śrem",
    "latitude": "52.08868000",
    "longitude": "17.01508000",
    "CountryID": 176,
    "StateID": 1634
  },
  {
    "id": 88838,
    "name": "Środa Wielkopolska",
    "latitude": "52.22843000",
    "longitude": "17.27617000",
    "CountryID": 176,
    "StateID": 1634
  },
  {
    "id": 88187,
    "name": "Stare Miasto",
    "latitude": "52.17972000",
    "longitude": "18.21499000",
    "CountryID": 176,
    "StateID": 1634
  },
  {
    "id": 88201,
    "name": "Stawiszyn",
    "latitude": "51.91786000",
    "longitude": "18.11171000",
    "CountryID": 176,
    "StateID": 1634
  },
  {
    "id": 88243,
    "name": "Stęszew",
    "latitude": "52.28370000",
    "longitude": "16.70085000",
    "CountryID": 176,
    "StateID": 1634
  },
  {
    "id": 88222,
    "name": "Strzałkowo",
    "latitude": "52.30701000",
    "longitude": "17.81811000",
    "CountryID": 176,
    "StateID": 1634
  },
  {
    "id": 88254,
    "name": "Suchy Las",
    "latitude": "52.47308000",
    "longitude": "16.87745000",
    "CountryID": 176,
    "StateID": 1634
  },
  {
    "id": 88260,
    "name": "Sulmierzyce",
    "latitude": "51.60594000",
    "longitude": "17.53053000",
    "CountryID": 176,
    "StateID": 1634
  },
  {
    "id": 88275,
    "name": "Swarzędz",
    "latitude": "52.41289000",
    "longitude": "17.08503000",
    "CountryID": 176,
    "StateID": 1634
  },
  {
    "id": 88864,
    "name": "Święciechowa",
    "latitude": "51.85503000",
    "longitude": "16.49805000",
    "CountryID": 176,
    "StateID": 1634
  },
  {
    "id": 88281,
    "name": "Sypniewo",
    "latitude": "53.46823000",
    "longitude": "16.60583000",
    "CountryID": 176,
    "StateID": 1634
  },
  {
    "id": 88285,
    "name": "Szamocin",
    "latitude": "53.02795000",
    "longitude": "17.12653000",
    "CountryID": 176,
    "StateID": 1634
  },
  {
    "id": 88286,
    "name": "Szamotuły",
    "latitude": "52.61201000",
    "longitude": "16.57794000",
    "CountryID": 176,
    "StateID": 1634
  },
  {
    "id": 88321,
    "name": "Szydłowo",
    "latitude": "53.16212000",
    "longitude": "16.61171000",
    "CountryID": 176,
    "StateID": 1634
  },
  {
    "id": 88367,
    "name": "Tarnówka",
    "latitude": "53.34174000",
    "longitude": "16.85273000",
    "CountryID": 176,
    "StateID": 1634
  },
  {
    "id": 88363,
    "name": "Tarnowo Podgórne",
    "latitude": "52.46642000",
    "longitude": "16.66326000",
    "CountryID": 176,
    "StateID": 1634
  },
  {
    "id": 88396,
    "name": "Trzcianka",
    "latitude": "53.04063000",
    "longitude": "16.45629000",
    "CountryID": 176,
    "StateID": 1634
  },
  {
    "id": 88399,
    "name": "Trzcinica",
    "latitude": "51.16707000",
    "longitude": "18.00453000",
    "CountryID": 176,
    "StateID": 1634
  },
  {
    "id": 88411,
    "name": "Trzemeszno",
    "latitude": "52.56139000",
    "longitude": "17.82311000",
    "CountryID": 176,
    "StateID": 1634
  },
  {
    "id": 88422,
    "name": "Tuliszków",
    "latitude": "52.07658000",
    "longitude": "18.29549000",
    "CountryID": 176,
    "StateID": 1634
  },
  {
    "id": 88424,
    "name": "Turek",
    "latitude": "52.01548000",
    "longitude": "18.50055000",
    "CountryID": 176,
    "StateID": 1634
  },
  {
    "id": 88452,
    "name": "Ujście",
    "latitude": "53.05339000",
    "longitude": "16.73201000",
    "CountryID": 176,
    "StateID": 1634
  },
  {
    "id": 88633,
    "name": "Wągrowiec",
    "latitude": "52.80842000",
    "longitude": "17.19961000",
    "CountryID": 176,
    "StateID": 1634
  },
  {
    "id": 88476,
    "name": "Wapno",
    "latitude": "52.90804000",
    "longitude": "17.47504000",
    "CountryID": 176,
    "StateID": 1634
  },
  {
    "id": 88499,
    "name": "Wieleń",
    "latitude": "52.89461000",
    "longitude": "16.17136000",
    "CountryID": 176,
    "StateID": 1634
  },
  {
    "id": 88501,
    "name": "Wielichowo",
    "latitude": "52.11573000",
    "longitude": "16.35180000",
    "CountryID": 176,
    "StateID": 1634
  },
  {
    "id": 88518,
    "name": "Wierzbinek",
    "latitude": "52.44026000",
    "longitude": "18.51085000",
    "CountryID": 176,
    "StateID": 1634
  },
  {
    "id": 88529,
    "name": "Wijewo",
    "latitude": "51.91627000",
    "longitude": "16.18552000",
    "CountryID": 176,
    "StateID": 1634
  },
  {
    "id": 88533,
    "name": "Wilczogóra",
    "latitude": "52.47348000",
    "longitude": "18.16744000",
    "CountryID": 176,
    "StateID": 1634
  },
  {
    "id": 88536,
    "name": "Wilczyn",
    "latitude": "52.48816000",
    "longitude": "18.16126000",
    "CountryID": 176,
    "StateID": 1634
  },
  {
    "id": 88539,
    "name": "Wilkowice",
    "latitude": "51.88513000",
    "longitude": "16.53417000",
    "CountryID": 176,
    "StateID": 1634
  },
  {
    "id": 88549,
    "name": "Witaszyce",
    "latitude": "51.94151000",
    "longitude": "17.56182000",
    "CountryID": 176,
    "StateID": 1634
  },
  {
    "id": 88551,
    "name": "Witkowo",
    "latitude": "52.43964000",
    "longitude": "17.77264000",
    "CountryID": 176,
    "StateID": 1634
  },
  {
    "id": 88647,
    "name": "Władysławów",
    "latitude": "52.10313000",
    "longitude": "18.47626000",
    "CountryID": 176,
    "StateID": 1634
  },
  {
    "id": 88653,
    "name": "Włoszakowice",
    "latitude": "51.92754000",
    "longitude": "16.36456000",
    "CountryID": 176,
    "StateID": 1634
  },
  {
    "id": 88597,
    "name": "Wolsztyn",
    "latitude": "52.11552000",
    "longitude": "16.11712000",
    "CountryID": 176,
    "StateID": 1634
  },
  {
    "id": 88605,
    "name": "Wronki",
    "latitude": "52.71051000",
    "longitude": "16.38044000",
    "CountryID": 176,
    "StateID": 1634
  },
  {
    "id": 88606,
    "name": "Września",
    "latitude": "52.32512000",
    "longitude": "17.56519000",
    "CountryID": 176,
    "StateID": 1634
  },
  {
    "id": 88614,
    "name": "Wyrzysk",
    "latitude": "53.15300000",
    "longitude": "17.26802000",
    "CountryID": 176,
    "StateID": 1634
  },
  {
    "id": 88617,
    "name": "Wysoka",
    "latitude": "53.18091000",
    "longitude": "17.08353000",
    "CountryID": 176,
    "StateID": 1634
  },
  {
    "id": 88672,
    "name": "Zagórów",
    "latitude": "52.16835000",
    "longitude": "17.89561000",
    "CountryID": 176,
    "StateID": 1634
  },
  {
    "id": 88679,
    "name": "Zakrzewo",
    "latitude": "53.41186000",
    "longitude": "17.15472000",
    "CountryID": 176,
    "StateID": 1634
  },
  {
    "id": 88693,
    "name": "Zaniemyśl",
    "latitude": "52.15561000",
    "longitude": "17.16228000",
    "CountryID": 176,
    "StateID": 1634
  },
  {
    "id": 88715,
    "name": "Zbąszyń",
    "latitude": "52.25090000",
    "longitude": "15.92520000",
    "CountryID": 176,
    "StateID": 1634
  },
  {
    "id": 88716,
    "name": "Zduny",
    "latitude": "51.64580000",
    "longitude": "17.37694000",
    "CountryID": 176,
    "StateID": 1634
  },
  {
    "id": 88880,
    "name": "Żelazków",
    "latitude": "51.85418000",
    "longitude": "18.17430000",
    "CountryID": 176,
    "StateID": 1634
  },
  {
    "id": 88884,
    "name": "Żerków",
    "latitude": "52.06877000",
    "longitude": "17.56349000",
    "CountryID": 176,
    "StateID": 1634
  },
  {
    "id": 88746,
    "name": "Złotniki",
    "latitude": "52.49407000",
    "longitude": "16.84496000",
    "CountryID": 176,
    "StateID": 1634
  },
  {
    "id": 88751,
    "name": "Złotów",
    "latitude": "53.36346000",
    "longitude": "17.04082000",
    "CountryID": 176,
    "StateID": 1634
  },
  {
    "id": 85819,
    "name": "Baćkowice",
    "latitude": "50.79194000",
    "longitude": "21.23211000",
    "CountryID": 176,
    "StateID": 1630
  },
  {
    "id": 85820,
    "name": "Bałtów",
    "latitude": "51.01845000",
    "longitude": "21.54385000",
    "CountryID": 176,
    "StateID": 1630
  },
  {
    "id": 85823,
    "name": "Bejsce",
    "latitude": "50.23903000",
    "longitude": "20.59834000",
    "CountryID": 176,
    "StateID": 1630
  },
  {
    "id": 85858,
    "name": "Bieliny",
    "latitude": "50.84947000",
    "longitude": "20.94149000",
    "CountryID": 176,
    "StateID": 1630
  },
  {
    "id": 85883,
    "name": "Bliżyn",
    "latitude": "51.10778000",
    "longitude": "20.75935000",
    "CountryID": 176,
    "StateID": 1630
  },
  {
    "id": 85894,
    "name": "Bodzentyn",
    "latitude": "50.94115000",
    "longitude": "20.95719000",
    "CountryID": 176,
    "StateID": 1630
  },
  {
    "id": 85897,
    "name": "Bogoria",
    "latitude": "50.65175000",
    "longitude": "21.26000000",
    "CountryID": 176,
    "StateID": 1630
  },
  {
    "id": 85945,
    "name": "Brody",
    "latitude": "51.02466000",
    "longitude": "21.22147000",
    "CountryID": 176,
    "StateID": 1630
  },
  {
    "id": 85963,
    "name": "Brzeziny",
    "latitude": "50.77273000",
    "longitude": "20.57319000",
    "CountryID": 176,
    "StateID": 1630
  },
  {
    "id": 85996,
    "name": "Busko-Zdrój",
    "latitude": "50.47078000",
    "longitude": "20.71884000",
    "CountryID": 176,
    "StateID": 1630
  },
  {
    "id": 86073,
    "name": "Chęciny",
    "latitude": "50.80021000",
    "longitude": "20.46229000",
    "CountryID": 176,
    "StateID": 1630
  },
  {
    "id": 86034,
    "name": "Chmielnik",
    "latitude": "50.61440000",
    "longitude": "20.75206000",
    "CountryID": 176,
    "StateID": 1630
  },
  {
    "id": 88754,
    "name": "Ćmielów",
    "latitude": "50.89028000",
    "longitude": "21.51426000",
    "CountryID": 176,
    "StateID": 1630
  },
  {
    "id": 86113,
    "name": "Czarnocin",
    "latitude": "50.34080000",
    "longitude": "20.51620000",
    "CountryID": 176,
    "StateID": 1630
  },
  {
    "id": 86154,
    "name": "Daleszyce",
    "latitude": "50.80229000",
    "longitude": "20.80791000",
    "CountryID": 176,
    "StateID": 1630
  },
  {
    "id": 86186,
    "name": "Domaszowice",
    "latitude": "50.87488000",
    "longitude": "20.68288000",
    "CountryID": 176,
    "StateID": 1630
  },
  {
    "id": 86210,
    "name": "Dwikozy",
    "latitude": "50.73613000",
    "longitude": "21.78864000",
    "CountryID": 176,
    "StateID": 1630
  },
  {
    "id": 86217,
    "name": "Działoszyce",
    "latitude": "50.36534000",
    "longitude": "20.35226000",
    "CountryID": 176,
    "StateID": 1630
  },
  {
    "id": 86268,
    "name": "Fałków",
    "latitude": "51.13606000",
    "longitude": "20.10610000",
    "CountryID": 176,
    "StateID": 1630
  },
  {
    "id": 86316,
    "name": "Gnojno",
    "latitude": "50.60263000",
    "longitude": "20.84913000",
    "CountryID": 176,
    "StateID": 1630
  },
  {
    "id": 86415,
    "name": "Górno",
    "latitude": "50.84774000",
    "longitude": "20.82501000",
    "CountryID": 176,
    "StateID": 1630
  },
  {
    "id": 86350,
    "name": "Gowarczów",
    "latitude": "51.27845000",
    "longitude": "20.43835000",
    "CountryID": 176,
    "StateID": 1630
  },
  {
    "id": 86396,
    "name": "Grzybowa Góra",
    "latitude": "51.13326000",
    "longitude": "20.96174000",
    "CountryID": 176,
    "StateID": 1630
  },
  {
    "id": 86458,
    "name": "Imielno",
    "latitude": "50.58569000",
    "longitude": "20.44813000",
    "CountryID": 176,
    "StateID": 1630
  },
  {
    "id": 86463,
    "name": "Iwaniska",
    "latitude": "50.73146000",
    "longitude": "21.28060000",
    "CountryID": 176,
    "StateID": 1630
  },
  {
    "id": 86578,
    "name": "Jędrzejów",
    "latitude": "50.63945000",
    "longitude": "20.30454000",
    "CountryID": 176,
    "StateID": 1630
  },
  {
    "id": 86607,
    "name": "Kaniów",
    "latitude": "50.98577000",
    "longitude": "20.66391000",
    "CountryID": 176,
    "StateID": 1630
  },
  {
    "id": 86627,
    "name": "Kazimierza Wielka",
    "latitude": "50.26564000",
    "longitude": "20.49358000",
    "CountryID": 176,
    "StateID": 1630
  },
  {
    "id": 86633,
    "name": "Kielce",
    "latitude": "50.87033000",
    "longitude": "20.62752000",
    "CountryID": 176,
    "StateID": 1630
  },
  {
    "id": 86638,
    "name": "Kije",
    "latitude": "50.60721000",
    "longitude": "20.57121000",
    "CountryID": 176,
    "StateID": 1630
  },
  {
    "id": 86650,
    "name": "Klimontów",
    "latitude": "50.65588000",
    "longitude": "21.45587000",
    "CountryID": 176,
    "StateID": 1630
  },
  {
    "id": 86750,
    "name": "Końskie",
    "latitude": "51.19166000",
    "longitude": "20.40607000",
    "CountryID": 176,
    "StateID": 1630
  },
  {
    "id": 86699,
    "name": "Koprzywnica",
    "latitude": "50.59340000",
    "longitude": "21.58380000",
    "CountryID": 176,
    "StateID": 1630
  },
  {
    "id": 86712,
    "name": "Kostomłoty Drugie",
    "latitude": "50.92684000",
    "longitude": "20.56529000",
    "CountryID": 176,
    "StateID": 1630
  },
  {
    "id": 86713,
    "name": "Kostomłoty Pierwsze",
    "latitude": "50.92322000",
    "longitude": "20.59490000",
    "CountryID": 176,
    "StateID": 1630
  },
  {
    "id": 86774,
    "name": "Krasocin",
    "latitude": "50.88874000",
    "longitude": "20.11863000",
    "CountryID": 176,
    "StateID": 1630
  },
  {
    "id": 86839,
    "name": "Kunów",
    "latitude": "50.96156000",
    "longitude": "21.28058000",
    "CountryID": 176,
    "StateID": 1630
  },
  {
    "id": 86916,
    "name": "Lipnik",
    "latitude": "50.72977000",
    "longitude": "21.49389000",
    "CountryID": 176,
    "StateID": 1630
  },
  {
    "id": 88814,
    "name": "Łączna",
    "latitude": "51.00231000",
    "longitude": "20.79712000",
    "CountryID": 176,
    "StateID": 1630
  },
  {
    "id": 88759,
    "name": "Łagów",
    "latitude": "50.77517000",
    "longitude": "21.08431000",
    "CountryID": 176,
    "StateID": 1630
  },
  {
    "id": 88787,
    "name": "Łoniów",
    "latitude": "50.56443000",
    "longitude": "21.52599000",
    "CountryID": 176,
    "StateID": 1630
  },
  {
    "id": 88791,
    "name": "Łopuszno",
    "latitude": "50.94864000",
    "longitude": "20.25081000",
    "CountryID": 176,
    "StateID": 1630
  },
  {
    "id": 88798,
    "name": "Łubnice",
    "latitude": "50.41164000",
    "longitude": "21.15014000",
    "CountryID": 176,
    "StateID": 1630
  },
  {
    "id": 87008,
    "name": "Małogoszcz",
    "latitude": "50.81214000",
    "longitude": "20.26407000",
    "CountryID": 176,
    "StateID": 1630
  },
  {
    "id": 87003,
    "name": "Masłów",
    "latitude": "50.90065000",
    "longitude": "20.72322000",
    "CountryID": 176,
    "StateID": 1630
  },
  {
    "id": 87023,
    "name": "Michałów",
    "latitude": "50.49541000",
    "longitude": "20.46178000",
    "CountryID": 176,
    "StateID": 1630
  },
  {
    "id": 87028,
    "name": "Miedziana Góra",
    "latitude": "50.93680000",
    "longitude": "20.55096000",
    "CountryID": 176,
    "StateID": 1630
  },
  {
    "id": 87057,
    "name": "Mirzec",
    "latitude": "51.13466000",
    "longitude": "21.05710000",
    "CountryID": 176,
    "StateID": 1630
  },
  {
    "id": 87079,
    "name": "Mniów",
    "latitude": "51.01224000",
    "longitude": "20.48427000",
    "CountryID": 176,
    "StateID": 1630
  },
  {
    "id": 87090,
    "name": "Morawica",
    "latitude": "50.74678000",
    "longitude": "20.61756000",
    "CountryID": 176,
    "StateID": 1630
  },
  {
    "id": 87132,
    "name": "Nagłowice",
    "latitude": "50.67835000",
    "longitude": "20.10661000",
    "CountryID": 176,
    "StateID": 1630
  },
  {
    "id": 87176,
    "name": "Nowa Słupia",
    "latitude": "50.86432000",
    "longitude": "21.09049000",
    "CountryID": 176,
    "StateID": 1630
  },
  {
    "id": 87204,
    "name": "Nowy Korczyn",
    "latitude": "50.30124000",
    "longitude": "20.80759000",
    "CountryID": 176,
    "StateID": 1630
  },
  {
    "id": 87218,
    "name": "Obrazów",
    "latitude": "50.69276000",
    "longitude": "21.65045000",
    "CountryID": 176,
    "StateID": 1630
  },
  {
    "id": 87235,
    "name": "Oksa",
    "latitude": "50.72874000",
    "longitude": "20.10086000",
    "CountryID": 176,
    "StateID": 1630
  },
  {
    "id": 87240,
    "name": "Oleśnica",
    "latitude": "50.45357000",
    "longitude": "21.06457000",
    "CountryID": 176,
    "StateID": 1630
  },
  {
    "id": 87256,
    "name": "Opatów",
    "latitude": "50.80058000",
    "longitude": "21.42538000",
    "CountryID": 176,
    "StateID": 1630
  },
  {
    "id": 87255,
    "name": "Opatowiec",
    "latitude": "50.24314000",
    "longitude": "20.72348000",
    "CountryID": 176,
    "StateID": 1630
  },
  {
    "id": 87282,
    "name": "Osiedle-Nowiny",
    "latitude": "50.81770000",
    "longitude": "20.54117000",
    "CountryID": 176,
    "StateID": 1630
  },
  {
    "id": 87283,
    "name": "Osiek",
    "latitude": "50.51996000",
    "longitude": "21.44192000",
    "CountryID": 176,
    "StateID": 1630
  },
  {
    "id": 87299,
    "name": "Ostrowiec Świętokrzyski",
    "latitude": "50.92936000",
    "longitude": "21.38525000",
    "CountryID": 176,
    "StateID": 1630
  },
  {
    "id": 87327,
    "name": "Ożarów",
    "latitude": "50.88798000",
    "longitude": "21.66658000",
    "CountryID": 176,
    "StateID": 1630
  },
  {
    "id": 87331,
    "name": "Pacanów",
    "latitude": "50.40031000",
    "longitude": "21.04148000",
    "CountryID": 176,
    "StateID": 1630
  },
  {
    "id": 87360,
    "name": "Pawłów",
    "latitude": "50.96216000",
    "longitude": "21.12062000",
    "CountryID": 176,
    "StateID": 1630
  },
  {
    "id": 87378,
    "name": "Piekoszów",
    "latitude": "50.88035000",
    "longitude": "20.46418000",
    "CountryID": 176,
    "StateID": 1630
  },
  {
    "id": 87381,
    "name": "Pierzchnica",
    "latitude": "50.69754000",
    "longitude": "20.75489000",
    "CountryID": 176,
    "StateID": 1630
  },
  {
    "id": 87405,
    "name": "Pińczów",
    "latitude": "50.52052000",
    "longitude": "20.52649000",
    "CountryID": 176,
    "StateID": 1630
  },
  {
    "id": 87776,
    "name": "Połaniec",
    "latitude": "50.43324000",
    "longitude": "21.28120000",
    "CountryID": 176,
    "StateID": 1630
  },
  {
    "id": 87890,
    "name": "Radoszyce",
    "latitude": "51.07392000",
    "longitude": "20.25836000",
    "CountryID": 176,
    "StateID": 1630
  },
  {
    "id": 87911,
    "name": "Raków",
    "latitude": "50.67427000",
    "longitude": "21.04517000",
    "CountryID": 176,
    "StateID": 1630
  },
  {
    "id": 87947,
    "name": "Rogów",
    "latitude": "51.20414000",
    "longitude": "20.43483000",
    "CountryID": 176,
    "StateID": 1630
  },
  {
    "id": 87970,
    "name": "Ruda Maleniecka",
    "latitude": "51.14592000",
    "longitude": "20.22377000",
    "CountryID": 176,
    "StateID": 1630
  },
  {
    "id": 88014,
    "name": "Rytwiany",
    "latitude": "50.52920000",
    "longitude": "21.20636000",
    "CountryID": 176,
    "StateID": 1630
  },
  {
    "id": 88043,
    "name": "Sadowie",
    "latitude": "50.85261000",
    "longitude": "21.36884000",
    "CountryID": 176,
    "StateID": 1630
  },
  {
    "id": 88045,
    "name": "Samborzec",
    "latitude": "50.64663000",
    "longitude": "21.64822000",
    "CountryID": 176,
    "StateID": 1630
  },
  {
    "id": 88046,
    "name": "Sandomierz",
    "latitude": "50.68265000",
    "longitude": "21.74898000",
    "CountryID": 176,
    "StateID": 1630
  },
  {
    "id": 88054,
    "name": "Secemin",
    "latitude": "50.76676000",
    "longitude": "19.83599000",
    "CountryID": 176,
    "StateID": 1630
  },
  {
    "id": 88328,
    "name": "Sędziszów",
    "latitude": "50.56590000",
    "longitude": "20.05563000",
    "CountryID": 176,
    "StateID": 1630
  },
  {
    "id": 88095,
    "name": "Skalbmierz",
    "latitude": "50.31993000",
    "longitude": "20.39929000",
    "CountryID": 176,
    "StateID": 1630
  },
  {
    "id": 88100,
    "name": "Skarżysko Kościelne",
    "latitude": "51.13822000",
    "longitude": "20.91196000",
    "CountryID": 176,
    "StateID": 1630
  },
  {
    "id": 88101,
    "name": "Skarżysko-Kamienna",
    "latitude": "51.11311000",
    "longitude": "20.87162000",
    "CountryID": 176,
    "StateID": 1630
  },
  {
    "id": 88348,
    "name": "Słupia",
    "latitude": "50.60073000",
    "longitude": "19.97435000",
    "CountryID": 176,
    "StateID": 1630
  },
  {
    "id": 88127,
    "name": "Smyków",
    "latitude": "51.04442000",
    "longitude": "20.40032000",
    "CountryID": 176,
    "StateID": 1630
  },
  {
    "id": 88131,
    "name": "Sobków",
    "latitude": "50.69999000",
    "longitude": "20.45062000",
    "CountryID": 176,
    "StateID": 1630
  },
  {
    "id": 88144,
    "name": "Solec-Zdrój",
    "latitude": "50.36594000",
    "longitude": "20.88956000",
    "CountryID": 176,
    "StateID": 1630
  },
  {
    "id": 88242,
    "name": "Stąporków",
    "latitude": "51.13762000",
    "longitude": "20.57173000",
    "CountryID": 176,
    "StateID": 1630
  },
  {
    "id": 88179,
    "name": "Starachowice",
    "latitude": "51.03740000",
    "longitude": "21.07126000",
    "CountryID": 176,
    "StateID": 1630
  },
  {
    "id": 88198,
    "name": "Staszów",
    "latitude": "50.56307000",
    "longitude": "21.16593000",
    "CountryID": 176,
    "StateID": 1630
  },
  {
    "id": 88207,
    "name": "Stopnica",
    "latitude": "50.44018000",
    "longitude": "20.93780000",
    "CountryID": 176,
    "StateID": 1630
  },
  {
    "id": 88214,
    "name": "Strawczyn",
    "latitude": "50.94177000",
    "longitude": "20.42135000",
    "CountryID": 176,
    "StateID": 1630
  },
  {
    "id": 88250,
    "name": "Suchedniów",
    "latitude": "51.04776000",
    "longitude": "20.82922000",
    "CountryID": 176,
    "StateID": 1630
  },
  {
    "id": 88322,
    "name": "Szydłów",
    "latitude": "50.59114000",
    "longitude": "21.00680000",
    "CountryID": 176,
    "StateID": 1630
  },
  {
    "id": 88368,
    "name": "Tarłów",
    "latitude": "51.00160000",
    "longitude": "21.71474000",
    "CountryID": 176,
    "StateID": 1630
  },
  {
    "id": 88421,
    "name": "Tuczępy",
    "latitude": "50.51676000",
    "longitude": "20.99187000",
    "CountryID": 176,
    "StateID": 1630
  },
  {
    "id": 88632,
    "name": "Wąchock",
    "latitude": "51.07391000",
    "longitude": "21.01243000",
    "CountryID": 176,
    "StateID": 1630
  },
  {
    "id": 88489,
    "name": "Waśniów",
    "latitude": "50.89914000",
    "longitude": "21.22301000",
    "CountryID": 176,
    "StateID": 1630
  },
  {
    "id": 88506,
    "name": "Wielka Wieś",
    "latitude": "51.07107000",
    "longitude": "20.96655000",
    "CountryID": 176,
    "StateID": 1630
  },
  {
    "id": 88534,
    "name": "Wilczyce",
    "latitude": "50.74694000",
    "longitude": "21.65783000",
    "CountryID": 176,
    "StateID": 1630
  },
  {
    "id": 88560,
    "name": "Wiślica",
    "latitude": "50.34891000",
    "longitude": "20.67438000",
    "CountryID": 176,
    "StateID": 1630
  },
  {
    "id": 88654,
    "name": "Włoszczowa",
    "latitude": "50.85256000",
    "longitude": "19.96593000",
    "CountryID": 176,
    "StateID": 1630
  },
  {
    "id": 88568,
    "name": "Wodzisław",
    "latitude": "50.52047000",
    "longitude": "20.19150000",
    "CountryID": 176,
    "StateID": 1630
  },
  {
    "id": 88572,
    "name": "Wojciechowice",
    "latitude": "50.84226000",
    "longitude": "21.58942000",
    "CountryID": 176,
    "StateID": 1630
  },
  {
    "id": 88585,
    "name": "Wola Jachowa",
    "latitude": "50.84524000",
    "longitude": "20.85814000",
    "CountryID": 176,
    "StateID": 1630
  },
  {
    "id": 88666,
    "name": "Zagnańsk",
    "latitude": "50.98037000",
    "longitude": "20.66314000",
    "CountryID": 176,
    "StateID": 1630
  },
  {
    "id": 88702,
    "name": "Zawichost",
    "latitude": "50.80743000",
    "longitude": "21.85408000",
    "CountryID": 176,
    "StateID": 1630
  },
  {
    "id": 88744,
    "name": "Złota",
    "latitude": "50.38160000",
    "longitude": "20.59361000",
    "CountryID": 176,
    "StateID": 1630
  },
  {
    "id": 85781,
    "name": "Aleksandrów Kujawski",
    "latitude": "52.87659000",
    "longitude": "18.69345000",
    "CountryID": 176,
    "StateID": 1625
  },
  {
    "id": 85808,
    "name": "Barcin",
    "latitude": "52.86607000",
    "longitude": "17.94625000",
    "CountryID": 176,
    "StateID": 1625
  },
  {
    "id": 85812,
    "name": "Bartniczka",
    "latitude": "53.24776000",
    "longitude": "19.60433000",
    "CountryID": 176,
    "StateID": 1625
  },
  {
    "id": 85814,
    "name": "Baruchowo",
    "latitude": "52.49412000",
    "longitude": "19.26496000",
    "CountryID": 176,
    "StateID": 1625
  },
  {
    "id": 85839,
    "name": "Białe Błota",
    "latitude": "53.09516000",
    "longitude": "17.91621000",
    "CountryID": 176,
    "StateID": 1625
  },
  {
    "id": 85889,
    "name": "Bobrowniki",
    "latitude": "52.78086000",
    "longitude": "18.96026000",
    "CountryID": 176,
    "StateID": 1625
  },
  {
    "id": 85891,
    "name": "Bobrowo",
    "latitude": "53.28549000",
    "longitude": "19.27053000",
    "CountryID": 176,
    "StateID": 1625
  },
  {
    "id": 85917,
    "name": "Boniewo",
    "latitude": "52.46532000",
    "longitude": "18.89116000",
    "CountryID": 176,
    "StateID": 1625
  },
  {
    "id": 85943,
    "name": "Brodnica",
    "latitude": "53.25967000",
    "longitude": "19.39653000",
    "CountryID": 176,
    "StateID": 1625
  },
  {
    "id": 85966,
    "name": "Brześć Kujawski",
    "latitude": "52.60532000",
    "longitude": "18.90173000",
    "CountryID": 176,
    "StateID": 1625
  },
  {
    "id": 85971,
    "name": "Brzozie",
    "latitude": "53.32554000",
    "longitude": "19.60485000",
    "CountryID": 176,
    "StateID": 1625
  },
  {
    "id": 85973,
    "name": "Brzuze",
    "latitude": "53.05458000",
    "longitude": "19.26195000",
    "CountryID": 176,
    "StateID": 1625
  },
  {
    "id": 85989,
    "name": "Bukowiec",
    "latitude": "53.43383000",
    "longitude": "18.24048000",
    "CountryID": 176,
    "StateID": 1625
  },
  {
    "id": 85999,
    "name": "Bydgoszcz",
    "latitude": "53.12350000",
    "longitude": "18.00762000",
    "CountryID": 176,
    "StateID": 1625
  },
  {
    "id": 86007,
    "name": "Bytoń",
    "latitude": "52.55757000",
    "longitude": "18.59522000",
    "CountryID": 176,
    "StateID": 1625
  },
  {
    "id": 86021,
    "name": "Cekcyn",
    "latitude": "53.57294000",
    "longitude": "18.01123000",
    "CountryID": 176,
    "StateID": 1625
  },
  {
    "id": 86031,
    "name": "Chełmno",
    "latitude": "53.34855000",
    "longitude": "18.42510000",
    "CountryID": 176,
    "StateID": 1625
  },
  {
    "id": 86032,
    "name": "Chełmża",
    "latitude": "53.18463000",
    "longitude": "18.60466000",
    "CountryID": 176,
    "StateID": 1625
  },
  {
    "id": 86038,
    "name": "Choceń",
    "latitude": "52.48618000",
    "longitude": "19.01339000",
    "CountryID": 176,
    "StateID": 1625
  },
  {
    "id": 86044,
    "name": "Chodecz",
    "latitude": "52.40513000",
    "longitude": "19.02759000",
    "CountryID": 176,
    "StateID": 1625
  },
  {
    "id": 86058,
    "name": "Chrostkowo",
    "latitude": "52.94378000",
    "longitude": "19.25328000",
    "CountryID": 176,
    "StateID": 1625
  },
  {
    "id": 86078,
    "name": "Ciechocin",
    "latitude": "53.05581000",
    "longitude": "18.92635000",
    "CountryID": 176,
    "StateID": 1625
  },
  {
    "id": 86079,
    "name": "Ciechocinek",
    "latitude": "52.87908000",
    "longitude": "18.79505000",
    "CountryID": 176,
    "StateID": 1625
  },
  {
    "id": 86136,
    "name": "Czerniewice",
    "latitude": "52.51157000",
    "longitude": "19.08694000",
    "CountryID": 176,
    "StateID": 1625
  },
  {
    "id": 86137,
    "name": "Czernikowo",
    "latitude": "52.94688000",
    "longitude": "18.93803000",
    "CountryID": 176,
    "StateID": 1625
  },
  {
    "id": 86237,
    "name": "Dąbrowa",
    "latitude": "52.74668000",
    "longitude": "17.94342000",
    "CountryID": 176,
    "StateID": 1625
  },
  {
    "id": 86239,
    "name": "Dąbrowa Chełmińska",
    "latitude": "53.17518000",
    "longitude": "18.30537000",
    "CountryID": 176,
    "StateID": 1625
  },
  {
    "id": 86254,
    "name": "Dębowa Łąka",
    "latitude": "53.25541000",
    "longitude": "19.09595000",
    "CountryID": 176,
    "StateID": 1625
  },
  {
    "id": 86171,
    "name": "Dobre",
    "latitude": "52.68398000",
    "longitude": "18.57762000",
    "CountryID": 176,
    "StateID": 1625
  },
  {
    "id": 86180,
    "name": "Dobrzyń nad Wisłą",
    "latitude": "52.63814000",
    "longitude": "19.31875000",
    "CountryID": 176,
    "StateID": 1625
  },
  {
    "id": 86203,
    "name": "Drzycim",
    "latitude": "53.50520000",
    "longitude": "18.30940000",
    "CountryID": 176,
    "StateID": 1625
  },
  {
    "id": 86266,
    "name": "Fabianki",
    "latitude": "52.71929000",
    "longitude": "19.10943000",
    "CountryID": 176,
    "StateID": 1625
  },
  {
    "id": 86272,
    "name": "Fordon",
    "latitude": "53.14821000",
    "longitude": "18.17036000",
    "CountryID": 176,
    "StateID": 1625
  },
  {
    "id": 86424,
    "name": "Gąsawa",
    "latitude": "52.76757000",
    "longitude": "17.75579000",
    "CountryID": 176,
    "StateID": 1625
  },
  {
    "id": 86312,
    "name": "Gniewkowo",
    "latitude": "52.89461000",
    "longitude": "18.40785000",
    "CountryID": 176,
    "StateID": 1625
  },
  {
    "id": 86329,
    "name": "Golub-Dobrzyń",
    "latitude": "53.11087000",
    "longitude": "19.05381000",
    "CountryID": 176,
    "StateID": 1625
  },
  {
    "id": 86419,
    "name": "Górzno",
    "latitude": "53.19779000",
    "longitude": "19.64317000",
    "CountryID": 176,
    "StateID": 1625
  },
  {
    "id": 86344,
    "name": "Gostycyn",
    "latitude": "53.49014000",
    "longitude": "17.80978000",
    "CountryID": 176,
    "StateID": 1625
  },
  {
    "id": 86386,
    "name": "Grudziądz",
    "latitude": "53.48411000",
    "longitude": "18.75366000",
    "CountryID": 176,
    "StateID": 1625
  },
  {
    "id": 86388,
    "name": "Gruta",
    "latitude": "53.45315000",
    "longitude": "18.95700000",
    "CountryID": 176,
    "StateID": 1625
  },
  {
    "id": 86459,
    "name": "Inowrocław",
    "latitude": "52.79886000",
    "longitude": "18.26387000",
    "CountryID": 176,
    "StateID": 1625
  },
  {
    "id": 86469,
    "name": "Izbica Kujawska",
    "latitude": "52.42073000",
    "longitude": "18.76270000",
    "CountryID": 176,
    "StateID": 1625
  },
  {
    "id": 86485,
    "name": "Jabłonowo Pomorskie",
    "latitude": "53.39137000",
    "longitude": "19.15509000",
    "CountryID": 176,
    "StateID": 1625
  },
  {
    "id": 86493,
    "name": "Janikowo",
    "latitude": "52.75328000",
    "longitude": "18.11328000",
    "CountryID": 176,
    "StateID": 1625
  },
  {
    "id": 86501,
    "name": "Janowiec Wielkopolski",
    "latitude": "52.75583000",
    "longitude": "17.48981000",
    "CountryID": 176,
    "StateID": 1625
  },
  {
    "id": 86558,
    "name": "Jeżewo",
    "latitude": "53.51061000",
    "longitude": "18.49437000",
    "CountryID": 176,
    "StateID": 1625
  },
  {
    "id": 86555,
    "name": "Jeziora Wielkie",
    "latitude": "52.53043000",
    "longitude": "18.26803000",
    "CountryID": 176,
    "StateID": 1625
  },
  {
    "id": 86600,
    "name": "Kamień Krajeński",
    "latitude": "53.53352000",
    "longitude": "17.52019000",
    "CountryID": 176,
    "StateID": 1625
  },
  {
    "id": 86631,
    "name": "Kcynia",
    "latitude": "52.99192000",
    "longitude": "17.48830000",
    "CountryID": 176,
    "StateID": 1625
  },
  {
    "id": 86857,
    "name": "Kęsowo",
    "latitude": "53.55872000",
    "longitude": "17.71580000",
    "CountryID": 176,
    "StateID": 1625
  },
  {
    "id": 86639,
    "name": "Kikół",
    "latitude": "52.90994000",
    "longitude": "19.12016000",
    "CountryID": 176,
    "StateID": 1625
  },
  {
    "id": 86705,
    "name": "Koronowo",
    "latitude": "53.31370000",
    "longitude": "17.93698000",
    "CountryID": 176,
    "StateID": 1625
  },
  {
    "id": 86725,
    "name": "Kowal",
    "latitude": "52.53019000",
    "longitude": "19.14767000",
    "CountryID": 176,
    "StateID": 1625
  },
  {
    "id": 86730,
    "name": "Kowalewo Pomorskie",
    "latitude": "53.15432000",
    "longitude": "18.89868000",
    "CountryID": 176,
    "StateID": 1625
  },
  {
    "id": 86793,
    "name": "Kruszwica",
    "latitude": "52.67562000",
    "longitude": "18.33131000",
    "CountryID": 176,
    "StateID": 1625
  },
  {
    "id": 86917,
    "name": "Lipno",
    "latitude": "52.84436000",
    "longitude": "19.17852000",
    "CountryID": 176,
    "StateID": 1625
  },
  {
    "id": 86924,
    "name": "Lisewo",
    "latitude": "53.29580000",
    "longitude": "18.68714000",
    "CountryID": 176,
    "StateID": 1625
  },
  {
    "id": 86929,
    "name": "Lniano",
    "latitude": "53.52801000",
    "longitude": "18.21267000",
    "CountryID": 176,
    "StateID": 1625
  },
  {
    "id": 86931,
    "name": "Lubanie",
    "latitude": "52.74689000",
    "longitude": "18.91940000",
    "CountryID": 176,
    "StateID": 1625
  },
  {
    "id": 86939,
    "name": "Lubicz Dolny",
    "latitude": "53.03151000",
    "longitude": "18.74559000",
    "CountryID": 176,
    "StateID": 1625
  },
  {
    "id": 86940,
    "name": "Lubicz Górny",
    "latitude": "53.02686000",
    "longitude": "18.77100000",
    "CountryID": 176,
    "StateID": 1625
  },
  {
    "id": 86943,
    "name": "Lubień Kujawski",
    "latitude": "52.40574000",
    "longitude": "19.16440000",
    "CountryID": 176,
    "StateID": 1625
  },
  {
    "id": 86941,
    "name": "Lubiewo",
    "latitude": "53.46542000",
    "longitude": "18.02994000",
    "CountryID": 176,
    "StateID": 1625
  },
  {
    "id": 86957,
    "name": "Lubraniec",
    "latitude": "52.54178000",
    "longitude": "18.83254000",
    "CountryID": 176,
    "StateID": 1625
  },
  {
    "id": 88755,
    "name": "Łabiszyn",
    "latitude": "52.95210000",
    "longitude": "17.91971000",
    "CountryID": 176,
    "StateID": 1625
  },
  {
    "id": 88769,
    "name": "Łasin",
    "latitude": "53.51794000",
    "longitude": "19.08832000",
    "CountryID": 176,
    "StateID": 1625
  },
  {
    "id": 88796,
    "name": "Łubianka",
    "latitude": "53.13864000",
    "longitude": "18.48115000",
    "CountryID": 176,
    "StateID": 1625
  },
  {
    "id": 88808,
    "name": "Łysomice",
    "latitude": "53.08629000",
    "longitude": "18.62002000",
    "CountryID": 176,
    "StateID": 1625
  },
  {
    "id": 87086,
    "name": "Mogilno",
    "latitude": "52.65806000",
    "longitude": "17.95578000",
    "CountryID": 176,
    "StateID": 1625
  },
  {
    "id": 87101,
    "name": "Mrocza",
    "latitude": "53.24313000",
    "longitude": "17.60405000",
    "CountryID": 176,
    "StateID": 1625
  },
  {
    "id": 87135,
    "name": "Nakło nad Notecią",
    "latitude": "53.14214000",
    "longitude": "17.60181000",
    "CountryID": 176,
    "StateID": 1625
  },
  {
    "id": 87168,
    "name": "Nieszawa",
    "latitude": "52.83452000",
    "longitude": "18.89921000",
    "CountryID": 176,
    "StateID": 1625
  },
  {
    "id": 87179,
    "name": "Nowa Wieś Wielka",
    "latitude": "52.97159000",
    "longitude": "18.09036000",
    "CountryID": 176,
    "StateID": 1625
  },
  {
    "id": 87180,
    "name": "Nowe",
    "latitude": "53.64906000",
    "longitude": "18.72716000",
    "CountryID": 176,
    "StateID": 1625
  },
  {
    "id": 87219,
    "name": "Obrowo",
    "latitude": "52.97149000",
    "longitude": "18.87863000",
    "CountryID": 176,
    "StateID": 1625
  },
  {
    "id": 87276,
    "name": "Osie",
    "latitude": "53.59918000",
    "longitude": "18.34373000",
    "CountryID": 176,
    "StateID": 1625
  },
  {
    "id": 87294,
    "name": "Osięciny",
    "latitude": "52.62926000",
    "longitude": "18.72208000",
    "CountryID": 176,
    "StateID": 1625
  },
  {
    "id": 87285,
    "name": "Osiek",
    "latitude": "52.92629000",
    "longitude": "18.80765000",
    "CountryID": 176,
    "StateID": 1625
  },
  {
    "id": 87292,
    "name": "Osielsko",
    "latitude": "53.18505000",
    "longitude": "18.08418000",
    "CountryID": 176,
    "StateID": 1625
  },
  {
    "id": 87300,
    "name": "Ostrowite",
    "latitude": "53.06917000",
    "longitude": "19.29337000",
    "CountryID": 176,
    "StateID": 1625
  },
  {
    "id": 87338,
    "name": "Pakość",
    "latitude": "52.80178000",
    "longitude": "18.08530000",
    "CountryID": 176,
    "StateID": 1625
  },
  {
    "id": 87393,
    "name": "Piotrków Kujawski",
    "latitude": "52.55111000",
    "longitude": "18.49905000",
    "CountryID": 176,
    "StateID": 1625
  },
  {
    "id": 87868,
    "name": "Płużnica",
    "latitude": "53.29672000",
    "longitude": "18.77692000",
    "CountryID": 176,
    "StateID": 1625
  },
  {
    "id": 87797,
    "name": "Pruszcz",
    "latitude": "53.33021000",
    "longitude": "18.19894000",
    "CountryID": 176,
    "StateID": 1625
  },
  {
    "id": 87874,
    "name": "Raciążek",
    "latitude": "52.85650000",
    "longitude": "18.81334000",
    "CountryID": 176,
    "StateID": 1625
  },
  {
    "id": 87885,
    "name": "Radomin",
    "latitude": "53.08670000",
    "longitude": "19.19415000",
    "CountryID": 176,
    "StateID": 1625
  },
  {
    "id": 87898,
    "name": "Radziejów",
    "latitude": "52.62481000",
    "longitude": "18.52771000",
    "CountryID": 176,
    "StateID": 1625
  },
  {
    "id": 87903,
    "name": "Radzyń Chełmiński",
    "latitude": "53.38509000",
    "longitude": "18.93725000",
    "CountryID": 176,
    "StateID": 1625
  },
  {
    "id": 87944,
    "name": "Rogowo",
    "latitude": "52.72449000",
    "longitude": "17.65117000",
    "CountryID": 176,
    "StateID": 1625
  },
  {
    "id": 87952,
    "name": "Rogóźno",
    "latitude": "53.53587000",
    "longitude": "18.92859000",
    "CountryID": 176,
    "StateID": 1625
  },
  {
    "id": 88012,
    "name": "Rypin",
    "latitude": "53.06603000",
    "longitude": "19.40941000",
    "CountryID": 176,
    "StateID": 1625
  },
  {
    "id": 88040,
    "name": "Sadki",
    "latitude": "53.16036000",
    "longitude": "17.44912000",
    "CountryID": 176,
    "StateID": 1625
  },
  {
    "id": 88333,
    "name": "Sępólno Krajeńskie",
    "latitude": "53.45198000",
    "longitude": "17.53169000",
    "CountryID": 176,
    "StateID": 1625
  },
  {
    "id": 88060,
    "name": "Sicienko",
    "latitude": "53.20387000",
    "longitude": "17.80051000",
    "CountryID": 176,
    "StateID": 1625
  },
  {
    "id": 88124,
    "name": "Skępe",
    "latitude": "52.86798000",
    "longitude": "19.35604000",
    "CountryID": 176,
    "StateID": 1625
  },
  {
    "id": 88115,
    "name": "Skrwilno",
    "latitude": "53.01607000",
    "longitude": "19.62364000",
    "CountryID": 176,
    "StateID": 1625
  },
  {
    "id": 88831,
    "name": "Ślesin",
    "latitude": "53.16514000",
    "longitude": "17.70258000",
    "CountryID": 176,
    "StateID": 1625
  },
  {
    "id": 88833,
    "name": "Śliwice",
    "latitude": "53.70875000",
    "longitude": "18.17370000",
    "CountryID": 176,
    "StateID": 1625
  },
  {
    "id": 88142,
    "name": "Solec Kujawski",
    "latitude": "53.08371000",
    "longitude": "18.22572000",
    "CountryID": 176,
    "StateID": 1625
  },
  {
    "id": 88160,
    "name": "Sośno",
    "latitude": "53.38922000",
    "longitude": "17.68713000",
    "CountryID": 176,
    "StateID": 1625
  },
  {
    "id": 88232,
    "name": "Strzelno",
    "latitude": "52.62789000",
    "longitude": "18.17246000",
    "CountryID": 176,
    "StateID": 1625
  },
  {
    "id": 88847,
    "name": "Świecie",
    "latitude": "53.40953000",
    "longitude": "18.44742000",
    "CountryID": 176,
    "StateID": 1625
  },
  {
    "id": 88848,
    "name": "Świecie nad Osą",
    "latitude": "53.44400000",
    "longitude": "19.10171000",
    "CountryID": 176,
    "StateID": 1625
  },
  {
    "id": 88849,
    "name": "Świedziebnia",
    "latitude": "53.15207000",
    "longitude": "19.55463000",
    "CountryID": 176,
    "StateID": 1625
  },
  {
    "id": 88850,
    "name": "Świekatowo",
    "latitude": "53.41864000",
    "longitude": "18.09731000",
    "CountryID": 176,
    "StateID": 1625
  },
  {
    "id": 88280,
    "name": "Sypniewo",
    "latitude": "53.36981000",
    "longitude": "17.32690000",
    "CountryID": 176,
    "StateID": 1625
  },
  {
    "id": 88317,
    "name": "Szubin",
    "latitude": "53.00967000",
    "longitude": "17.74000000",
    "CountryID": 176,
    "StateID": 1625
  },
  {
    "id": 88444,
    "name": "Tłuchowo",
    "latitude": "52.74715000",
    "longitude": "19.46563000",
    "CountryID": 176,
    "StateID": 1625
  },
  {
    "id": 88383,
    "name": "Topólka",
    "latitude": "52.50327000",
    "longitude": "18.71246000",
    "CountryID": 176,
    "StateID": 1625
  },
  {
    "id": 88384,
    "name": "Toruń",
    "latitude": "53.01375000",
    "longitude": "18.59814000",
    "CountryID": 176,
    "StateID": 1625
  },
  {
    "id": 88417,
    "name": "Tuchola",
    "latitude": "53.58792000",
    "longitude": "17.85905000",
    "CountryID": 176,
    "StateID": 1625
  },
  {
    "id": 88456,
    "name": "Unisław",
    "latitude": "53.21241000",
    "longitude": "18.38622000",
    "CountryID": 176,
    "StateID": 1625
  },
  {
    "id": 88631,
    "name": "Wąbrzeźno",
    "latitude": "53.27989000",
    "longitude": "18.94773000",
    "CountryID": 176,
    "StateID": 1625
  },
  {
    "id": 88471,
    "name": "Waganiec",
    "latitude": "52.80120000",
    "longitude": "18.87589000",
    "CountryID": 176,
    "StateID": 1625
  },
  {
    "id": 88634,
    "name": "Wąpielsk",
    "latitude": "53.13761000",
    "longitude": "19.27792000",
    "CountryID": 176,
    "StateID": 1625
  },
  {
    "id": 88478,
    "name": "Warlubie",
    "latitude": "53.58751000",
    "longitude": "18.63444000",
    "CountryID": 176,
    "StateID": 1625
  },
  {
    "id": 88557,
    "name": "Więcbork",
    "latitude": "53.35384000",
    "longitude": "17.49064000",
    "CountryID": 176,
    "StateID": 1625
  },
  {
    "id": 88500,
    "name": "Wielgie",
    "latitude": "52.74076000",
    "longitude": "19.26350000",
    "CountryID": 176,
    "StateID": 1625
  },
  {
    "id": 88504,
    "name": "Wielka Nieszawka",
    "latitude": "52.99619000",
    "longitude": "18.50973000",
    "CountryID": 176,
    "StateID": 1625
  },
  {
    "id": 88524,
    "name": "Wierzchosławice",
    "latitude": "52.86923000",
    "longitude": "18.35609000",
    "CountryID": 176,
    "StateID": 1625
  },
  {
    "id": 88649,
    "name": "Włocławek",
    "latitude": "52.64817000",
    "longitude": "19.06780000",
    "CountryID": 176,
    "StateID": 1625
  },
  {
    "id": 88713,
    "name": "Zbójno",
    "latitude": "53.00848000",
    "longitude": "19.15750000",
    "CountryID": 176,
    "StateID": 1625
  },
  {
    "id": 88741,
    "name": "Zławieś Wielka",
    "latitude": "53.09562000",
    "longitude": "18.32897000",
    "CountryID": 176,
    "StateID": 1625
  },
  {
    "id": 88748,
    "name": "Złotniki Kujawskie",
    "latitude": "52.89943000",
    "longitude": "18.14564000",
    "CountryID": 176,
    "StateID": 1625
  },
  {
    "id": 88888,
    "name": "Żnin",
    "latitude": "52.84958000",
    "longitude": "17.71992000",
    "CountryID": 176,
    "StateID": 1625
  },
  {
    "id": 85783,
    "name": "Alwernia",
    "latitude": "50.06056000",
    "longitude": "19.53953000",
    "CountryID": 176,
    "StateID": 1635
  },
  {
    "id": 85785,
    "name": "Andrychów",
    "latitude": "49.85497000",
    "longitude": "19.33834000",
    "CountryID": 176,
    "StateID": 1635
  },
  {
    "id": 85790,
    "name": "Babice",
    "latitude": "50.05565000",
    "longitude": "19.19955000",
    "CountryID": 176,
    "StateID": 1635
  },
  {
    "id": 85794,
    "name": "Bachowice",
    "latitude": "49.95812000",
    "longitude": "19.49369000",
    "CountryID": 176,
    "StateID": 1635
  },
  {
    "id": 85795,
    "name": "Balice",
    "latitude": "50.08799000",
    "longitude": "19.79462000",
    "CountryID": 176,
    "StateID": 1635
  },
  {
    "id": 85797,
    "name": "Balin",
    "latitude": "50.16799000",
    "longitude": "19.38340000",
    "CountryID": 176,
    "StateID": 1635
  },
  {
    "id": 85815,
    "name": "Barwałd Górny",
    "latitude": "49.86211000",
    "longitude": "19.61746000",
    "CountryID": 176,
    "StateID": 1635
  },
  {
    "id": 85816,
    "name": "Barwałd Średni",
    "latitude": "49.86632000",
    "longitude": "19.59360000",
    "CountryID": 176,
    "StateID": 1635
  },
  {
    "id": 86010,
    "name": "Bębło",
    "latitude": "50.18053000",
    "longitude": "19.78741000",
    "CountryID": 176,
    "StateID": 1635
  },
  {
    "id": 86011,
    "name": "Bęczarka",
    "latitude": "49.87793000",
    "longitude": "19.86723000",
    "CountryID": 176,
    "StateID": 1635
  },
  {
    "id": 85840,
    "name": "Białka",
    "latitude": "49.69306000",
    "longitude": "19.67033000",
    "CountryID": 176,
    "StateID": 1635
  },
  {
    "id": 85841,
    "name": "Białka Tatrzańska",
    "latitude": "49.38975000",
    "longitude": "20.10507000",
    "CountryID": 176,
    "StateID": 1635
  },
  {
    "id": 85849,
    "name": "Biały Dunajec",
    "latitude": "49.37380000",
    "longitude": "20.00898000",
    "CountryID": 176,
    "StateID": 1635
  },
  {
    "id": 85851,
    "name": "Biecz",
    "latitude": "49.73596000",
    "longitude": "21.26301000",
    "CountryID": 176,
    "StateID": 1635
  },
  {
    "id": 85869,
    "name": "Bieńkówka",
    "latitude": "49.77600000",
    "longitude": "19.77179000",
    "CountryID": 176,
    "StateID": 1635
  },
  {
    "id": 85871,
    "name": "Binarowa",
    "latitude": "49.75621000",
    "longitude": "21.22816000",
    "CountryID": 176,
    "StateID": 1635
  },
  {
    "id": 85873,
    "name": "Biskupice Radłowskie",
    "latitude": "50.12069000",
    "longitude": "20.85943000",
    "CountryID": 176,
    "StateID": 1635
  },
  {
    "id": 85885,
    "name": "Bobowa",
    "latitude": "49.70866000",
    "longitude": "20.94767000",
    "CountryID": 176,
    "StateID": 1635
  },
  {
    "id": 85892,
    "name": "Bochnia",
    "latitude": "49.96905000",
    "longitude": "20.43028000",
    "CountryID": 176,
    "StateID": 1635
  },
  {
    "id": 85908,
    "name": "Bolechowice",
    "latitude": "50.14831000",
    "longitude": "19.79273000",
    "CountryID": 176,
    "StateID": 1635
  },
  {
    "id": 85916,
    "name": "Bolęcin",
    "latitude": "50.11750000",
    "longitude": "19.48116000",
    "CountryID": 176,
    "StateID": 1635
  },
  {
    "id": 85910,
    "name": "Bolesław",
    "latitude": "50.29729000",
    "longitude": "19.48073000",
    "CountryID": 176,
    "StateID": 1635
  },
  {
    "id": 85918,
    "name": "Borek",
    "latitude": "50.01778000",
    "longitude": "20.53087000",
    "CountryID": 176,
    "StateID": 1635
  },
  {
    "id": 85930,
    "name": "Borzęcin",
    "latitude": "50.06540000",
    "longitude": "20.71103000",
    "CountryID": 176,
    "StateID": 1635
  },
  {
    "id": 85931,
    "name": "Borzęta",
    "latitude": "49.86228000",
    "longitude": "19.97924000",
    "CountryID": 176,
    "StateID": 1635
  },
  {
    "id": 85949,
    "name": "Brodła",
    "latitude": "50.04331000",
    "longitude": "19.58879000",
    "CountryID": 176,
    "StateID": 1635
  },
  {
    "id": 85946,
    "name": "Brody",
    "latitude": "49.86742000",
    "longitude": "19.69746000",
    "CountryID": 176,
    "StateID": 1635
  },
  {
    "id": 85977,
    "name": "Brzączowice",
    "latitude": "49.87478000",
    "longitude": "20.03709000",
    "CountryID": 176,
    "StateID": 1635
  },
  {
    "id": 85960,
    "name": "Brzesko",
    "latitude": "49.96911000",
    "longitude": "20.60606000",
    "CountryID": 176,
    "StateID": 1635
  },
  {
    "id": 85961,
    "name": "Brzeszcze",
    "latitude": "49.98203000",
    "longitude": "19.15157000",
    "CountryID": 176,
    "StateID": 1635
  },
  {
    "id": 85962,
    "name": "Brzezinka",
    "latitude": "50.04237000",
    "longitude": "19.19020000",
    "CountryID": 176,
    "StateID": 1635
  },
  {
    "id": 85968,
    "name": "Brzeźnica",
    "latitude": "49.96497000",
    "longitude": "19.61952000",
    "CountryID": 176,
    "StateID": 1635
  },
  {
    "id": 85986,
    "name": "Budzów",
    "latitude": "49.77622000",
    "longitude": "19.67274000",
    "CountryID": 176,
    "StateID": 1635
  },
  {
    "id": 85990,
    "name": "Bukowina Tatrzańska",
    "latitude": "49.34302000",
    "longitude": "20.10807000",
    "CountryID": 176,
    "StateID": 1635
  },
  {
    "id": 85991,
    "name": "Bukowno",
    "latitude": "50.26474000",
    "longitude": "19.45962000",
    "CountryID": 176,
    "StateID": 1635
  },
  {
    "id": 85994,
    "name": "Bulowice",
    "latitude": "49.87650000",
    "longitude": "19.28873000",
    "CountryID": 176,
    "StateID": 1635
  },
  {
    "id": 86000,
    "name": "Bystra",
    "latitude": "49.64796000",
    "longitude": "19.77994000",
    "CountryID": 176,
    "StateID": 1635
  },
  {
    "id": 86029,
    "name": "Chełmek",
    "latitude": "50.10163000",
    "longitude": "19.24801000",
    "CountryID": 176,
    "StateID": 1635
  },
  {
    "id": 86030,
    "name": "Chełmiec",
    "latitude": "49.63051000",
    "longitude": "20.66425000",
    "CountryID": 176,
    "StateID": 1635
  },
  {
    "id": 86043,
    "name": "Chocznia",
    "latitude": "49.87417000",
    "longitude": "19.45438000",
    "CountryID": 176,
    "StateID": 1635
  },
  {
    "id": 86062,
    "name": "Chrzanów",
    "latitude": "50.13546000",
    "longitude": "19.40203000",
    "CountryID": 176,
    "StateID": 1635
  },
  {
    "id": 86071,
    "name": "Chyżne",
    "latitude": "49.42672000",
    "longitude": "19.66956000",
    "CountryID": 176,
    "StateID": 1635
  },
  {
    "id": 86094,
    "name": "Ciężkowice",
    "latitude": "49.78575000",
    "longitude": "20.97324000",
    "CountryID": 176,
    "StateID": 1635
  },
  {
    "id": 86107,
    "name": "Czarna Góra",
    "latitude": "49.37662000",
    "longitude": "20.13047000",
    "CountryID": 176,
    "StateID": 1635
  },
  {
    "id": 86112,
    "name": "Czarnochowice",
    "latitude": "50.00471000",
    "longitude": "20.06790000",
    "CountryID": 176,
    "StateID": 1635
  },
  {
    "id": 86118,
    "name": "Czarny Dunajec",
    "latitude": "49.43663000",
    "longitude": "19.85161000",
    "CountryID": 176,
    "StateID": 1635
  },
  {
    "id": 86121,
    "name": "Czchów",
    "latitude": "49.83726000",
    "longitude": "20.68056000",
    "CountryID": 176,
    "StateID": 1635
  },
  {
    "id": 86133,
    "name": "Czernichów",
    "latitude": "49.98920000",
    "longitude": "19.68115000",
    "CountryID": 176,
    "StateID": 1635
  },
  {
    "id": 86147,
    "name": "Czułów",
    "latitude": "50.05956000",
    "longitude": "19.70106000",
    "CountryID": 176,
    "StateID": 1635
  },
  {
    "id": 86241,
    "name": "Dąbrowa Tarnowska",
    "latitude": "50.17462000",
    "longitude": "20.98633000",
    "CountryID": 176,
    "StateID": 1635
  },
  {
    "id": 86251,
    "name": "Dębno",
    "latitude": "49.96701000",
    "longitude": "20.71979000",
    "CountryID": 176,
    "StateID": 1635
  },
  {
    "id": 86164,
    "name": "Dobczyce",
    "latitude": "49.88109000",
    "longitude": "20.08936000",
    "CountryID": 176,
    "StateID": 1635
  },
  {
    "id": 86167,
    "name": "Dobra",
    "latitude": "49.71793000",
    "longitude": "20.25347000",
    "CountryID": 176,
    "StateID": 1635
  },
  {
    "id": 86226,
    "name": "Dziewin",
    "latitude": "50.07554000",
    "longitude": "20.45491000",
    "CountryID": 176,
    "StateID": 1635
  },
  {
    "id": 86269,
    "name": "Filipowice",
    "latitude": "50.15573000",
    "longitude": "19.56579000",
    "CountryID": 176,
    "StateID": 1635
  },
  {
    "id": 86277,
    "name": "Frydman",
    "latitude": "49.44927000",
    "longitude": "20.22961000",
    "CountryID": 176,
    "StateID": 1635
  },
  {
    "id": 86278,
    "name": "Frydrychowice",
    "latitude": "49.90481000",
    "longitude": "19.41936000",
    "CountryID": 176,
    "StateID": 1635
  },
  {
    "id": 86293,
    "name": "Gdów",
    "latitude": "49.90818000",
    "longitude": "20.19879000",
    "CountryID": 176,
    "StateID": 1635
  },
  {
    "id": 86295,
    "name": "Giebułtów",
    "latitude": "50.14556000",
    "longitude": "19.87856000",
    "CountryID": 176,
    "StateID": 1635
  },
  {
    "id": 86298,
    "name": "Gierałtowice",
    "latitude": "49.94426000",
    "longitude": "19.39070000",
    "CountryID": 176,
    "StateID": 1635
  },
  {
    "id": 86426,
    "name": "Głogoczów",
    "latitude": "49.89452000",
    "longitude": "19.87410000",
    "CountryID": 176,
    "StateID": 1635
  },
  {
    "id": 86315,
    "name": "Gnojnik",
    "latitude": "49.89397000",
    "longitude": "20.60863000",
    "CountryID": 176,
    "StateID": 1635
  },
  {
    "id": 86333,
    "name": "Gorenice",
    "latitude": "50.20800000",
    "longitude": "19.62038000",
    "CountryID": 176,
    "StateID": 1635
  },
  {
    "id": 86334,
    "name": "Gorlice",
    "latitude": "49.65563000",
    "longitude": "21.16035000",
    "CountryID": 176,
    "StateID": 1635
  },
  {
    "id": 86402,
    "name": "Gręboszów",
    "latitude": "50.24501000",
    "longitude": "20.77669000",
    "CountryID": 176,
    "StateID": 1635
  },
  {
    "id": 86379,
    "name": "Grojec",
    "latitude": "49.98147000",
    "longitude": "19.23792000",
    "CountryID": 176,
    "StateID": 1635
  },
  {
    "id": 86381,
    "name": "Gromnik",
    "latitude": "49.83843000",
    "longitude": "20.96123000",
    "CountryID": 176,
    "StateID": 1635
  },
  {
    "id": 86387,
    "name": "Gruszów Wielki",
    "latitude": "50.19163000",
    "longitude": "21.03144000",
    "CountryID": 176,
    "StateID": 1635
  },
  {
    "id": 86389,
    "name": "Grybów",
    "latitude": "49.62439000",
    "longitude": "20.94797000",
    "CountryID": 176,
    "StateID": 1635
  },
  {
    "id": 86393,
    "name": "Grzechynia",
    "latitude": "49.71360000",
    "longitude": "19.64561000",
    "CountryID": 176,
    "StateID": 1635
  },
  {
    "id": 86443,
    "name": "Harbutowice",
    "latitude": "49.81235000",
    "longitude": "19.78045000",
    "CountryID": 176,
    "StateID": 1635
  },
  {
    "id": 86461,
    "name": "Inwałd",
    "latitude": "49.86355000",
    "longitude": "19.39276000",
    "CountryID": 176,
    "StateID": 1635
  },
  {
    "id": 86465,
    "name": "Iwkowa",
    "latitude": "49.81716000",
    "longitude": "20.59018000",
    "CountryID": 176,
    "StateID": 1635
  },
  {
    "id": 86471,
    "name": "Izdebnik",
    "latitude": "49.87218000",
    "longitude": "19.76801000",
    "CountryID": 176,
    "StateID": 1635
  },
  {
    "id": 86480,
    "name": "Jabłonka",
    "latitude": "49.47968000",
    "longitude": "19.69370000",
    "CountryID": 176,
    "StateID": 1635
  },
  {
    "id": 86487,
    "name": "Jadowniki",
    "latitude": "49.95884000",
    "longitude": "20.64434000",
    "CountryID": 176,
    "StateID": 1635
  },
  {
    "id": 86488,
    "name": "Jadowniki Mokre",
    "latitude": "50.16546000",
    "longitude": "20.72845000",
    "CountryID": 176,
    "StateID": 1635
  },
  {
    "id": 86497,
    "name": "Janowice",
    "latitude": "49.89154000",
    "longitude": "20.86081000",
    "CountryID": 176,
    "StateID": 1635
  },
  {
    "id": 86510,
    "name": "Jaroszowice",
    "latitude": "49.86267000",
    "longitude": "19.51962000",
    "CountryID": 176,
    "StateID": 1635
  },
  {
    "id": 86517,
    "name": "Jasień",
    "latitude": "49.96988000",
    "longitude": "20.57190000",
    "CountryID": 176,
    "StateID": 1635
  },
  {
    "id": 86513,
    "name": "Jasienica",
    "latitude": "49.82281000",
    "longitude": "19.84191000",
    "CountryID": 176,
    "StateID": 1635
  },
  {
    "id": 86526,
    "name": "Jastrzębia",
    "latitude": "49.79733000",
    "longitude": "20.88089000",
    "CountryID": 176,
    "StateID": 1635
  },
  {
    "id": 86533,
    "name": "Jawornik",
    "latitude": "49.85580000",
    "longitude": "19.89315000",
    "CountryID": 176,
    "StateID": 1635
  },
  {
    "id": 86554,
    "name": "Jerzmanowice",
    "latitude": "50.21267000",
    "longitude": "19.74672000",
    "CountryID": 176,
    "StateID": 1635
  },
  {
    "id": 86564,
    "name": "Jodłówka",
    "latitude": "49.99295000",
    "longitude": "20.54821000",
    "CountryID": 176,
    "StateID": 1635
  },
  {
    "id": 86565,
    "name": "Jodłówka-Wałki",
    "latitude": "50.04992000",
    "longitude": "21.13332000",
    "CountryID": 176,
    "StateID": 1635
  },
  {
    "id": 86568,
    "name": "Jordanów",
    "latitude": "49.64935000",
    "longitude": "19.82981000",
    "CountryID": 176,
    "StateID": 1635
  },
  {
    "id": 86571,
    "name": "Juszczyn",
    "latitude": "49.69290000",
    "longitude": "19.69128000",
    "CountryID": 176,
    "StateID": 1635
  },
  {
    "id": 86588,
    "name": "Kalwaria Zebrzydowska",
    "latitude": "49.86759000",
    "longitude": "19.67720000",
    "CountryID": 176,
    "StateID": 1635
  },
  {
    "id": 86599,
    "name": "Kamień",
    "latitude": "50.01215000",
    "longitude": "19.58536000",
    "CountryID": 176,
    "StateID": 1635
  },
  {
    "id": 86590,
    "name": "Kamienica",
    "latitude": "49.57533000",
    "longitude": "20.34505000",
    "CountryID": 176,
    "StateID": 1635
  },
  {
    "id": 86604,
    "name": "Kamionka Wielka",
    "latitude": "49.56848000",
    "longitude": "20.82364000",
    "CountryID": 176,
    "StateID": 1635
  },
  {
    "id": 86619,
    "name": "Kasina Wielka",
    "latitude": "49.72969000",
    "longitude": "20.13554000",
    "CountryID": 176,
    "StateID": 1635
  },
  {
    "id": 86620,
    "name": "Kaszów",
    "latitude": "50.03884000",
    "longitude": "19.71934000",
    "CountryID": 176,
    "StateID": 1635
  },
  {
    "id": 86859,
    "name": "Kęty",
    "latitude": "49.88214000",
    "longitude": "19.22333000",
    "CountryID": 176,
    "StateID": 1635
  },
  {
    "id": 86642,
    "name": "Klecza Dolna",
    "latitude": "49.88291000",
    "longitude": "19.53764000",
    "CountryID": 176,
    "StateID": 1635
  },
  {
    "id": 86649,
    "name": "Klikuszowa",
    "latitude": "49.51930000",
    "longitude": "19.98490000",
    "CountryID": 176,
    "StateID": 1635
  },
  {
    "id": 86651,
    "name": "Klimontów",
    "latitude": "50.22843000",
    "longitude": "20.31990000",
    "CountryID": 176,
    "StateID": 1635
  },
  {
    "id": 86654,
    "name": "Klucze",
    "latitude": "50.33565000",
    "longitude": "19.56236000",
    "CountryID": 176,
    "StateID": 1635
  },
  {
    "id": 86656,
    "name": "Kluszkowce",
    "latitude": "49.45100000",
    "longitude": "20.30179000",
    "CountryID": 176,
    "StateID": 1635
  },
  {
    "id": 86860,
    "name": "Kłaj",
    "latitude": "49.99246000",
    "longitude": "20.29904000",
    "CountryID": 176,
    "StateID": 1635
  },
  {
    "id": 86664,
    "name": "Kobylanka",
    "latitude": "49.66891000",
    "longitude": "21.22293000",
    "CountryID": 176,
    "StateID": 1635
  },
  {
    "id": 86675,
    "name": "Kokotów",
    "latitude": "50.01254000",
    "longitude": "20.07829000",
    "CountryID": 176,
    "StateID": 1635
  },
  {
    "id": 86709,
    "name": "Korzenna",
    "latitude": "49.68635000",
    "longitude": "20.84355000",
    "CountryID": 176,
    "StateID": 1635
  },
  {
    "id": 86755,
    "name": "Kościelisko",
    "latitude": "49.29073000",
    "longitude": "19.88929000",
    "CountryID": 176,
    "StateID": 1635
  },
  {
    "id": 86718,
    "name": "Koszyce",
    "latitude": "49.97226000",
    "longitude": "20.94166000",
    "CountryID": 176,
    "StateID": 1635
  },
  {
    "id": 86719,
    "name": "Koszyce Wielkie",
    "latitude": "49.98076000",
    "longitude": "20.94552000",
    "CountryID": 176,
    "StateID": 1635
  },
  {
    "id": 86739,
    "name": "Kozłów",
    "latitude": "50.48394000",
    "longitude": "20.02456000",
    "CountryID": 176,
    "StateID": 1635
  },
  {
    "id": 86763,
    "name": "Kraków",
    "latitude": "50.07262000",
    "longitude": "19.93250000",
    "CountryID": 176,
    "StateID": 1635
  },
  {
    "id": 86787,
    "name": "Krościenko nad Dunajcem",
    "latitude": "49.44081000",
    "longitude": "20.42624000",
    "CountryID": 176,
    "StateID": 1635
  },
  {
    "id": 86788,
    "name": "Krośnica",
    "latitude": "49.44787000",
    "longitude": "20.33956000",
    "CountryID": 176,
    "StateID": 1635
  },
  {
    "id": 86795,
    "name": "Krynica-Zdrój",
    "latitude": "49.42225000",
    "longitude": "20.95942000",
    "CountryID": 176,
    "StateID": 1635
  },
  {
    "id": 86799,
    "name": "Kryspinów",
    "latitude": "50.04380000",
    "longitude": "19.79822000",
    "CountryID": 176,
    "StateID": 1635
  },
  {
    "id": 86801,
    "name": "Krzczonów",
    "latitude": "49.73813000",
    "longitude": "19.91821000",
    "CountryID": 176,
    "StateID": 1635
  },
  {
    "id": 86827,
    "name": "Krzęcin",
    "latitude": "49.94316000",
    "longitude": "19.74157000",
    "CountryID": 176,
    "StateID": 1635
  },
  {
    "id": 86804,
    "name": "Krzeczów",
    "latitude": "49.98876000",
    "longitude": "20.48779000",
    "CountryID": 176,
    "StateID": 1635
  },
  {
    "id": 86812,
    "name": "Krzeszów",
    "latitude": "49.75915000",
    "longitude": "19.48915000",
    "CountryID": 176,
    "StateID": 1635
  },
  {
    "id": 86808,
    "name": "Krzeszowice",
    "latitude": "50.14248000",
    "longitude": "19.63223000",
    "CountryID": 176,
    "StateID": 1635
  },
  {
    "id": 86816,
    "name": "Krzyszkowice",
    "latitude": "49.88346000",
    "longitude": "19.92285000",
    "CountryID": 176,
    "StateID": 1635
  },
  {
    "id": 86817,
    "name": "Krzywaczka",
    "latitude": "49.89353000",
    "longitude": "19.83221000",
    "CountryID": 176,
    "StateID": 1635
  },
  {
    "id": 86836,
    "name": "Kuków",
    "latitude": "49.73252000",
    "longitude": "19.48485000",
    "CountryID": 176,
    "StateID": 1635
  },
  {
    "id": 86848,
    "name": "Kwaczała",
    "latitude": "50.06408000",
    "longitude": "19.49215000",
    "CountryID": 176,
    "StateID": 1635
  },
  {
    "id": 86868,
    "name": "Lachowice",
    "latitude": "49.71555000",
    "longitude": "19.47455000",
    "CountryID": 176,
    "StateID": 1635
  },
  {
    "id": 86870,
    "name": "Lanckorona",
    "latitude": "49.84496000",
    "longitude": "19.71578000",
    "CountryID": 176,
    "StateID": 1635
  },
  {
    "id": 86871,
    "name": "Lasek",
    "latitude": "49.50883000",
    "longitude": "19.98078000",
    "CountryID": 176,
    "StateID": 1635
  },
  {
    "id": 86872,
    "name": "Laskowa",
    "latitude": "49.76147000",
    "longitude": "20.45045000",
    "CountryID": 176,
    "StateID": 1635
  },
  {
    "id": 86887,
    "name": "Leńcze",
    "latitude": "49.89895000",
    "longitude": "19.73539000",
    "CountryID": 176,
    "StateID": 1635
  },
  {
    "id": 86891,
    "name": "Leśnica",
    "latitude": "49.40092000",
    "longitude": "20.06001000",
    "CountryID": 176,
    "StateID": 1635
  },
  {
    "id": 86896,
    "name": "Libertów",
    "latitude": "49.97242000",
    "longitude": "19.89461000",
    "CountryID": 176,
    "StateID": 1635
  },
  {
    "id": 86897,
    "name": "Libiąż",
    "latitude": "50.10396000",
    "longitude": "19.31568000",
    "CountryID": 176,
    "StateID": 1635
  },
  {
    "id": 86902,
    "name": "Limanowa",
    "latitude": "49.70594000",
    "longitude": "20.42204000",
    "CountryID": 176,
    "StateID": 1635
  },
  {
    "id": 86908,
    "name": "Lipinki",
    "latitude": "49.67296000",
    "longitude": "21.29288000",
    "CountryID": 176,
    "StateID": 1635
  },
  {
    "id": 86913,
    "name": "Lipnica Mała",
    "latitude": "49.51507000",
    "longitude": "19.63497000",
    "CountryID": 176,
    "StateID": 1635
  },
  {
    "id": 86914,
    "name": "Lipnica Wielka",
    "latitude": "49.70489000",
    "longitude": "20.86844000",
    "CountryID": 176,
    "StateID": 1635
  },
  {
    "id": 86915,
    "name": "Lipnik",
    "latitude": "49.78902000",
    "longitude": "20.08455000",
    "CountryID": 176,
    "StateID": 1635
  },
  {
    "id": 86926,
    "name": "Lisia Góra",
    "latitude": "50.08039000",
    "longitude": "21.04397000",
    "CountryID": 176,
    "StateID": 1635
  },
  {
    "id": 86928,
    "name": "Liszki",
    "latitude": "50.03884000",
    "longitude": "19.76835000",
    "CountryID": 176,
    "StateID": 1635
  },
  {
    "id": 86942,
    "name": "Lubień",
    "latitude": "49.71921000",
    "longitude": "19.97847000",
    "CountryID": 176,
    "StateID": 1635
  },
  {
    "id": 86952,
    "name": "Lubomierz",
    "latitude": "49.60854000",
    "longitude": "20.20214000",
    "CountryID": 176,
    "StateID": 1635
  },
  {
    "id": 86965,
    "name": "Ludźmierz",
    "latitude": "49.46656000",
    "longitude": "19.98250000",
    "CountryID": 176,
    "StateID": 1635
  },
  {
    "id": 86966,
    "name": "Luszowice",
    "latitude": "50.17415000",
    "longitude": "19.40426000",
    "CountryID": 176,
    "StateID": 1635
  },
  {
    "id": 88756,
    "name": "Łabowa",
    "latitude": "49.52766000",
    "longitude": "20.85497000",
    "CountryID": 176,
    "StateID": 1635
  },
  {
    "id": 88812,
    "name": "Łącko",
    "latitude": "49.55757000",
    "longitude": "20.43586000",
    "CountryID": 176,
    "StateID": 1635
  },
  {
    "id": 88813,
    "name": "Łączany",
    "latitude": "49.98407000",
    "longitude": "19.57867000",
    "CountryID": 176,
    "StateID": 1635
  },
  {
    "id": 88765,
    "name": "Łapanów",
    "latitude": "49.86538000",
    "longitude": "20.29149000",
    "CountryID": 176,
    "StateID": 1635
  },
  {
    "id": 88766,
    "name": "Łapczyca",
    "latitude": "49.95994000",
    "longitude": "20.38445000",
    "CountryID": 176,
    "StateID": 1635
  },
  {
    "id": 88767,
    "name": "Łapsze Niżne",
    "latitude": "49.39807000",
    "longitude": "20.24343000",
    "CountryID": 176,
    "StateID": 1635
  },
  {
    "id": 88828,
    "name": "Łętownia",
    "latitude": "49.69745000",
    "longitude": "19.87109000",
    "CountryID": 176,
    "StateID": 1635
  },
  {
    "id": 88790,
    "name": "Łopuszna",
    "latitude": "49.47281000",
    "longitude": "20.13021000",
    "CountryID": 176,
    "StateID": 1635
  },
  {
    "id": 88794,
    "name": "Łososina Dolna",
    "latitude": "49.74977000",
    "longitude": "20.63129000",
    "CountryID": 176,
    "StateID": 1635
  },
  {
    "id": 88802,
    "name": "Łukowa",
    "latitude": "50.09300000",
    "longitude": "20.97548000",
    "CountryID": 176,
    "StateID": 1635
  },
  {
    "id": 88804,
    "name": "Łukowica",
    "latitude": "49.61110000",
    "longitude": "20.48289000",
    "CountryID": 176,
    "StateID": 1635
  },
  {
    "id": 88806,
    "name": "Łużna",
    "latitude": "49.71288000",
    "longitude": "21.04637000",
    "CountryID": 176,
    "StateID": 1635
  },
  {
    "id": 86984,
    "name": "Maków Podhalański",
    "latitude": "49.73008000",
    "longitude": "19.67711000",
    "CountryID": 176,
    "StateID": 1635
  },
  {
    "id": 86988,
    "name": "Malec",
    "latitude": "49.92106000",
    "longitude": "19.24530000",
    "CountryID": 176,
    "StateID": 1635
  },
  {
    "id": 86990,
    "name": "Maniowy",
    "latitude": "49.45976000",
    "longitude": "20.26454000",
    "CountryID": 176,
    "StateID": 1635
  },
  {
    "id": 87002,
    "name": "Maszkienice",
    "latitude": "49.98920000",
    "longitude": "20.68657000",
    "CountryID": 176,
    "StateID": 1635
  },
  {
    "id": 87125,
    "name": "Mędrzechów",
    "latitude": "50.28221000",
    "longitude": "20.94749000",
    "CountryID": 176,
    "StateID": 1635
  },
  {
    "id": 87126,
    "name": "Mętków",
    "latitude": "50.05251000",
    "longitude": "19.37525000",
    "CountryID": 176,
    "StateID": 1635
  },
  {
    "id": 87020,
    "name": "Michałowice",
    "latitude": "50.15898000",
    "longitude": "19.98044000",
    "CountryID": 176,
    "StateID": 1635
  },
  {
    "id": 87026,
    "name": "Miechów",
    "latitude": "50.35648000",
    "longitude": "20.02788000",
    "CountryID": 176,
    "StateID": 1635
  },
  {
    "id": 87027,
    "name": "Miechów Charsznica",
    "latitude": "50.39599000",
    "longitude": "19.95031000",
    "CountryID": 176,
    "StateID": 1635
  },
  {
    "id": 87067,
    "name": "Miękinia",
    "latitude": "50.15557000",
    "longitude": "19.60871000",
    "CountryID": 176,
    "StateID": 1635
  },
  {
    "id": 87077,
    "name": "Mników",
    "latitude": "50.06044000",
    "longitude": "19.72595000",
    "CountryID": 176,
    "StateID": 1635
  },
  {
    "id": 87082,
    "name": "Modlnica",
    "latitude": "50.12958000",
    "longitude": "19.86461000",
    "CountryID": 176,
    "StateID": 1635
  },
  {
    "id": 87083,
    "name": "Modlniczka",
    "latitude": "50.11739000",
    "longitude": "19.85530000",
    "CountryID": 176,
    "StateID": 1635
  },
  {
    "id": 87085,
    "name": "Mogilany",
    "latitude": "49.93890000",
    "longitude": "19.88972000",
    "CountryID": 176,
    "StateID": 1635
  },
  {
    "id": 87098,
    "name": "Moszczenica",
    "latitude": "49.73668000",
    "longitude": "21.09238000",
    "CountryID": 176,
    "StateID": 1635
  },
  {
    "id": 87109,
    "name": "Mszana Dolna",
    "latitude": "49.67432000",
    "longitude": "20.07992000",
    "CountryID": 176,
    "StateID": 1635
  },
  {
    "id": 87110,
    "name": "Mszana Górna",
    "latitude": "49.66202000",
    "longitude": "20.09734000",
    "CountryID": 176,
    "StateID": 1635
  },
  {
    "id": 87115,
    "name": "Muszyna",
    "latitude": "49.35661000",
    "longitude": "20.89718000",
    "CountryID": 176,
    "StateID": 1635
  },
  {
    "id": 87122,
    "name": "Myślachowice",
    "latitude": "50.18514000",
    "longitude": "19.48116000",
    "CountryID": 176,
    "StateID": 1635
  },
  {
    "id": 87123,
    "name": "Myślenice",
    "latitude": "49.83383000",
    "longitude": "19.93830000",
    "CountryID": 176,
    "StateID": 1635
  },