[
  {
    "id": 4889,
    "name": "Central and Western",
    "iso2": "HCW",
    "native": "Central and Western",
    "latitude": "22.28666000",
    "longitude": "114.15497000",
    "type": "district",
    "timezone": "Asia/Hong_Kong",
    "CountryID": 98
  },
  {
    "id": 4891,
    "name": "Eastern",
    "iso2": "HEA",
    "native": "Eastern",
    "latitude": "22.28411000",
    "longitude": "114.22414000",
    "type": "district",
    "timezone": "Asia/Hong_Kong",
    "CountryID": 98
  },
  {
    "id": 4888,
    "name": "Islands",
    "iso2": "NIS",
    "native": "Islands",
    "latitude": "22.26114000",
    "longitude": "113.94608000",
    "type": "district",
    "timezone": "Asia/Hong_Kong",
    "CountryID": 98
  },
  {
    "id": 4895,
    "name": "Kowloon City",
    "iso2": "KKC",
    "native": "Kowloon City",
    "latitude": "22.32820000",
    "longitude": "114.19155000",
    "type": "district",
    "timezone": "Asia/Hong_Kong",
    "CountryID": 98
  },
  {
    "id": 4898,
    "name": "Kwai Tsing",
    "iso2": "NKT",
    "native": "Kwai Tsing",
    "latitude": "22.36343030",
    "longitude": "114.12298250",
    "type": "district",
    "timezone": "Asia/Hong_Kong",
    "CountryID": 98
  },
  {
    "id": 4897,
    "name": "Kwun Tong",
    "iso2": "KKT",
    "native": "Kwun Tong",
    "latitude": "22.31326000",
    "longitude": "114.22581000",
    "type": "district",
    "timezone": "Asia/Hong_Kong",
    "CountryID": 98
  },
  {
    "id": 4900,
    "name": "North",
    "iso2": "NNO",
    "native": "North",
    "latitude": "22.49471000",
    "longitude": "114.13812000",
    "type": "district",
    "timezone": "Asia/Hong_Kong",
    "CountryID": 98
  },
  {
    "id": 4887,
    "name": "Sai Kung",
    "iso2": "NSK",
    "native": "Sai Kung",
    "latitude": "21.67305190",
    "longitude": "108.39543130",
    "type": "district",
    "timezone": "Asia/Hong_Kong",
    "CountryID": 98
  },
  {
    "id": 4901,
    "name": "Sha Tin",
    "iso2": "NST",
    "native": "Sha Tin",
    "latitude": "22.38715000",
    "longitude": "114.19534000",
    "type": "district",
    "timezone": "Asia/Hong_Kong",
    "CountryID": 98
  },
  {
    "id": 4894,
    "name": "Sham Shui Po",
    "iso2": "KSS",
    "native": "Sham Shui Po",
    "latitude": "22.23573830",
    "longitude": "114.16981620",
    "type": "district",
    "timezone": "Asia/Hong_Kong",
    "CountryID": 98
  },
  {
    "id": 4892,
    "name": "Southern",
    "iso2": "HSO",
    "native": "Southern",
    "latitude": "22.24725000",
    "longitude": "114.15884000",
    "type": "district",
    "timezone": "Asia/Hong_Kong",
    "CountryID": 98
  },
  {
    "id": 4885,
    "name": "Tai Po",
    "iso2": "NTP",
    "native": "Tai Po",
    "latitude": "22.45085000",
    "longitude": "114.16422000",
    "type": "district",
    "timezone": "Asia/Hong_Kong",
    "CountryID": 98
  },
  {
    "id": 4884,
    "name": "Tsuen Wan",
    "iso2": "NTW",
    "native": "Tsuen Wan",
    "latitude": "22.36281000",
    "longitude": "114.12907000",
    "type": "district",
    "timezone": "Asia/Hong_Kong",
    "CountryID": 98
  },
  {
    "id": 4899,
    "name": "Tuen Mun",
    "iso2": "NTM",
    "native": "Tuen Mun",
    "latitude": "22.39163000",
    "longitude": "113.97708850",
    "type": "district",
    "timezone": "Asia/Hong_Kong",
    "CountryID": 98
  },
  {
    "id": 4890,
    "name": "Wan Chai",
    "iso2": "HWC",
    "native": "Wan Chai",
    "latitude": "22.26449900",
    "longitude": "114.18982160",
    "type": "district",
    "timezone": "Asia/Hong_Kong",
    "CountryID": 98
  },
  {
    "id": 4896,
    "name": "Wong Tai Sin",
    "iso2": "KWT",
    "native": "Wong Tai Sin",
    "latitude": "22.33353000",
    "longitude": "114.19686000",
    "type": "district",
    "timezone": "Asia/Hong_Kong",
    "CountryID": 98
  },
  {
    "id": 4893,
    "name": "Yau Tsim Mong",
    "iso2": "KYT",
    "native": "Yau Tsim Mong",
    "latitude": "22.32138000",
    "longitude": "114.17260000",
    "type": "district",
    "timezone": "Asia/Hong_Kong",
    "CountryID": 98
  },
  {
    "id": 4883,
    "name": "Yuen Long",
    "iso2": "NYL",
    "native": "Yuen Long",
    "latitude": "22.44870510",
    "longitude": "114.09587040",
    "type": "district",
    "timezone": "Asia/Hong_Kong",
    "CountryID": 98
  }
]