[
  {
    "id": 154101,
    "name": "Vingtaine de la Rocque",
    "latitude": "49.17048880",
    "longitude": "-2.03389140",
    "CountryID": 110,
    "StateID": 5309
  },
  {
    "id": 154099,
    "name": "Vingtaine de la Rue",
    "latitude": "49.18661230",
    "longitude": "-2.05316130",
    "CountryID": 110,
    "StateID": 5309
  },
  {
    "id": 154100,
    "name": "Vingtaine de Longueville",
    "latitude": "49.19001830",
    "longitude": "-2.04917800",
    "CountryID": 110,
    "StateID": 5309
  },
  {
    "id": 154098,
    "name": "Vingtaine des Marais",
    "latitude": "49.18556300",
    "longitude": "-2.05042200",
    "CountryID": 110,
    "StateID": 5309
  },
  {
    "id": 154105,
    "name": "Vingtaine de la Moye",
    "latitude": "49.18445480",
    "longitude": "-2.23950470",
    "CountryID": 110,
    "StateID": 5310
  },
  {
    "id": 154102,
    "name": "Vingtaine de Noirmont",
    "latitude": "49.17269850",
    "longitude": "-2.22550510",
    "CountryID": 110,
    "StateID": 5310
  },
  {
    "id": 154104,
    "name": "Vingtaine des Quennevais",
    "latitude": "49.19704320",
    "longitude": "-2.21618080",
    "CountryID": 110,
    "StateID": 5310
  },
  {
    "id": 154103,
    "name": "Vingtaine du Coin",
    "latitude": "49.18753960",
    "longitude": "-2.18473710",
    "CountryID": 110,
    "StateID": 5310
  },
  {
    "id": 154106,
    "name": "Grande Vingtaine",
    "latitude": "49.17207130",
    "longitude": "-2.06199370",
    "CountryID": 110,
    "StateID": 5311
  },
  {
    "id": 154108,
    "name": "Vingtaine de Samarès",
    "latitude": "49.16497580",
    "longitude": "-2.09880290",
    "CountryID": 110,
    "StateID": 5311
  },
  {
    "id": 154107,
    "name": "Vingtaine du Rocquier",
    "latitude": "49.17250500",
    "longitude": "-2.06543840",
    "CountryID": 110,
    "StateID": 5311
  },
  {
    "id": 154111,
    "name": "Vingtaine de Bas du Mont au Prêtre",
    "latitude": "49.19939590",
    "longitude": "-2.11964080",
    "CountryID": 110,
    "StateID": 5312
  },
  {
    "id": 154112,
    "name": "Vingtaine de Haut du Mont au Prêtre",
    "latitude": "49.20242510",
    "longitude": "-2.09919230",
    "CountryID": 110,
    "StateID": 5312
  },
  {
    "id": 154109,
    "name": "Vingtaine de la Ville",
    "latitude": "49.17883320",
    "longitude": "-2.10357590",
    "CountryID": 110,
    "StateID": 5312
  },
  {
    "id": 154113,
    "name": "Vingtaine du Mont à l'Abbé",
    "latitude": "49.20036330",
    "longitude": "-2.13384390",
    "CountryID": 110,
    "StateID": 5312
  },
  {
    "id": 154114,
    "name": "Vingtaine du Mont Cochon",
    "latitude": "49.19975370",
    "longitude": "-2.14757550",
    "CountryID": 110,
    "StateID": 5312
  },
  {
    "id": 154110,
    "name": "Vingtaine du Rouge Bouillon",
    "latitude": "49.19291200",
    "longitude": "-2.10935300",
    "CountryID": 110,
    "StateID": 5312
  },
  {
    "id": 154116,
    "name": "Vingtaine de Hérupe",
    "latitude": "49.23330120",
    "longitude": "-2.12357080",
    "CountryID": 110,
    "StateID": 5313
  },
  {
    "id": 154117,
    "name": "Vingtaine du Douet",
    "latitude": "49.23459620",
    "longitude": "-2.17227710",
    "CountryID": 110,
    "StateID": 5313
  },
  {
    "id": 154115,
    "name": "Vingtaine du Nord",
    "latitude": "49.23938780",
    "longitude": "-2.12069720",
    "CountryID": 110,
    "StateID": 5313
  },
  {
    "id": 154119,
    "name": "Vingtaine Bas de la Vallée",
    "latitude": "49.19584680",
    "longitude": "-2.15669220",
    "CountryID": 110,
    "StateID": 5314
  },
  {
    "id": 154120,
    "name": "Vingtaine du Coin Hatain",
    "latitude": "49.22074360",
    "longitude": "-2.12697490",
    "CountryID": 110,
    "StateID": 5314
  },
  {
    "id": 154121,
    "name": "Vingtaine du Coin Motier",
    "latitude": "49.22490170",
    "longitude": "-2.13965400",
    "CountryID": 110,
    "StateID": 5314
  },
  {
    "id": 154122,
    "name": "Vingtaine du Coin Tourgis Nord",
    "latitude": "49.22924990",
    "longitude": "-2.15092570",
    "CountryID": 110,
    "StateID": 5314
  },
  {
    "id": 154123,
    "name": "Vingtaine du Coin Tourgis Sud",
    "latitude": "49.21059460",
    "longitude": "-2.15264330",
    "CountryID": 110,
    "StateID": 5314
  },
  {
    "id": 154125,
    "name": "Vingtaine de Faldouet",
    "latitude": "49.20322040",
    "longitude": "-2.05269720",
    "CountryID": 110,
    "StateID": 5315
  },
  {
    "id": 154126,
    "name": "Vingtaine de la Quéruée",
    "latitude": "49.21499100",
    "longitude": "-2.05603630",
    "CountryID": 110,
    "StateID": 5315
  },
  {
    "id": 154124,
    "name": "Vingtaine de Rozel",
    "latitude": "49.23569500",
    "longitude": "-2.05048470",
    "CountryID": 110,
    "StateID": 5315
  },
  {
    "id": 154128,
    "name": "Vingtaine du Fief de la Reine",
    "latitude": "49.21842770",
    "longitude": "-2.03518790",
    "CountryID": 110,
    "StateID": 5315
  },
  {
    "id": 154130,
    "name": "Vingtaine du Nord",
    "latitude": "49.24426390",
    "longitude": "-2.18082260",
    "CountryID": 110,
    "StateID": 5316
  },
  {
    "id": 154129,
    "name": "Vingtaine du Sud",
    "latitude": "49.23404250",
    "longitude": "-2.16730840",
    "CountryID": 110,
    "StateID": 5316
  },
  {
    "id": 154133,
    "name": "Cueillette de Grantez",
    "latitude": "49.23123970",
    "longitude": "-2.22339030",
    "CountryID": 110,
    "StateID": 5317
  },
  {
    "id": 154136,
    "name": "Cueillette de Léoville",
    "latitude": "49.23803240",
    "longitude": "-2.22634870",
    "CountryID": 110,
    "StateID": 5317
  },
  {
    "id": 154134,
    "name": "Cueillette de Millais",
    "latitude": "49.24085370",
    "longitude": "-2.24330420",
    "CountryID": 110,
    "StateID": 5317
  },
  {
    "id": 154135,
    "name": "Cueillette de Vinchelez",
    "latitude": "49.24447800",
    "longitude": "-2.23905430",
    "CountryID": 110,
    "StateID": 5317
  },
  {
    "id": 154132,
    "name": "Grande Cueillette",
    "latitude": "49.22331000",
    "longitude": "-2.21609880",
    "CountryID": 110,
    "StateID": 5317
  },
  {
    "id": 154131,
    "name": "Petite Cueillette",
    "latitude": "49.22456770",
    "longitude": "-2.19656550",
    "CountryID": 110,
    "StateID": 5317
  },
  {
    "id": 154138,
    "name": "Grande Vingtaine",
    "latitude": "49.21065500",
    "longitude": "-2.19606360",
    "CountryID": 110,
    "StateID": 5318
  },
  {
    "id": 154139,
    "name": "Vingtaine des Augerez",
    "latitude": "49.20776790",
    "longitude": "-2.18629780",
    "CountryID": 110,
    "StateID": 5318
  },
  {
    "id": 154140,
    "name": "Vingtaine du Coin Varin",
    "latitude": "49.21451950",
    "longitude": "-2.18722550",
    "CountryID": 110,
    "StateID": 5318
  },
  {
    "id": 154137,
    "name": "Vingtaine du Douet",
    "latitude": "49.20988070",
    "longitude": "-2.18453420",
    "CountryID": 110,
    "StateID": 5318
  },
  {
    "id": 154146,
    "name": "Vingtaine de la Grande Longueville",
    "latitude": "49.18786710",
    "longitude": "-2.07502150",
    "CountryID": 110,
    "StateID": 5319
  },
  {
    "id": 154141,
    "name": "Vingtaine de la Petite Longueville",
    "latitude": "49.18090340",
    "longitude": "-2.08121620",
    "CountryID": 110,
    "StateID": 5319
  },
  {
    "id": 154143,
    "name": "Vingtaine de Maufant",
    "latitude": "49.20822960",
    "longitude": "-2.10060600",
    "CountryID": 110,
    "StateID": 5319
  },
  {
    "id": 154144,
    "name": "Vingtaine de Sous la Hougue",
    "latitude": "49.21377110",
    "longitude": "-2.13576620",
    "CountryID": 110,
    "StateID": 5319
  },
  {
    "id": 154145,
    "name": "Vingtaine des Pigneaux",
    "latitude": "49.20262700",
    "longitude": "-2.07080670",
    "CountryID": 110,
    "StateID": 5319
  },
  {
    "id": 154151,
    "name": "Vingtaine de la Croiserie",
    "latitude": "49.21646930",
    "longitude": "-2.09164410",
    "CountryID": 110,
    "StateID": 5320
  },
  {
    "id": 154147,
    "name": "Vingtaine de la Ville-à-l'Évêque",
    "latitude": "49.23176480",
    "longitude": "-2.12236840",
    "CountryID": 110,
    "StateID": 5320
  },
  {
    "id": 154148,
    "name": "Vingtaine de Rozel",
    "latitude": "49.23842870",
    "longitude": "-2.06704060",
    "CountryID": 110,
    "StateID": 5320
  },
  {
    "id": 154150,
    "name": "Vingtaine des Augrès",
    "latitude": "49.22857290",
    "longitude": "-2.08235050",
    "CountryID": 110,
    "StateID": 5320
  },
  {
    "id": 154149,
    "name": "Vingtaine du Rondin",
    "latitude": "49.23706240",
    "longitude": "-2.08753310",
    "CountryID": 110,
    "StateID": 5320
  }
]