[
  {
    "id": 3583,
    "name": "Bahr el Gazel",
    "iso2": "BG",
    "native": "Bahr El Gazel",
    "latitude": "14.46824680",
    "longitude": "16.94168360",
    "type": "province",
    "timezone": "Africa/Ndjamena",
    "CountryID": 43
  },
  {
    "id": 3590,
    "name": "Batha",
    "iso2": "BA",
    "native": "Batha",
    "latitude": "13.83677310",
    "longitude": "18.96498060",
    "type": "province",
    "timezone": "Africa/Ndjamena",
    "CountryID": 43
  },
  {
    "id": 3574,
    "name": "Borkou",
    "iso2": "BO",
    "native": "Borkou",
    "latitude": "17.26581290",
    "longitude": "18.36952880",
    "type": "province",
    "timezone": "Africa/Ndjamena",
    "CountryID": 43
  },
  {
    "id": 5114,
    "name": "Chari-Baguirmi",
    "iso2": "CB",
    "native": "Chari-baguirmi",
    "latitude": "11.33453480",
    "longitude": "16.28843110",
    "type": "province",
    "timezone": "Africa/Ndjamena",
    "CountryID": 43
  },
  {
    "id": 3575,
    "name": "Ennedi-Est",
    "iso2": "EE",
    "native": "Ennedi-Est",
    "latitude": "17.62197370",
    "longitude": "23.31336760",
    "type": "province",
    "timezone": "Africa/Ndjamena",
    "CountryID": 43
  },
  {
    "id": 3584,
    "name": "Ennedi-Ouest",
    "iso2": "EO",
    "native": "Ennedi-Ouest",
    "latitude": "18.16368030",
    "longitude": "21.50827090",
    "type": "province",
    "timezone": "Africa/Ndjamena",
    "CountryID": 43
  },
  {
    "id": 3576,
    "name": "Guéra",
    "iso2": "GR",
    "native": "Guéra",
    "latitude": "11.67538170",
    "longitude": "18.49100310",
    "type": "province",
    "timezone": "Africa/Ndjamena",
    "CountryID": 43
  },
  {
    "id": 3573,
    "name": "Hadjer-Lamis",
    "iso2": "HL",
    "native": "Hadjer-lamis",
    "latitude": "12.69039060",
    "longitude": "16.33526480",
    "type": "province",
    "timezone": "Africa/Ndjamena",
    "CountryID": 43
  },
  {
    "id": 3588,
    "name": "Kanem",
    "iso2": "KA",
    "native": "Kanem",
    "latitude": "15.22643980",
    "longitude": "15.31511910",
    "type": "province",
    "timezone": "Africa/Ndjamena",
    "CountryID": 43
  },
  {
    "id": 3577,
    "name": "Lac",
    "iso2": "LC",
    "native": "Lac",
    "latitude": "13.58208270",
    "longitude": "14.37883290",
    "type": "province",
    "timezone": "Africa/Ndjamena",
    "CountryID": 43
  },
  {
    "id": 3585,
    "name": "Logone Occidental",
    "iso2": "LO",
    "native": "Logone Occidental",
    "latitude": "8.77956370",
    "longitude": "15.91267490",
    "type": "province",
    "timezone": "Africa/Ndjamena",
    "CountryID": 43
  },
  {
    "id": 3591,
    "name": "Logone Oriental",
    "iso2": "LR",
    "native": "Logone Oriental",
    "latitude": "8.20471520",
    "longitude": "16.47018100",
    "type": "province",
    "timezone": "Africa/Ndjamena",
    "CountryID": 43
  },
  {
    "id": 3589,
    "name": "Mandoul",
    "iso2": "MA",
    "native": "Mandall",
    "latitude": "8.72751000",
    "longitude": "17.58417710",
    "type": "province",
    "timezone": "Africa/Ndjamena",
    "CountryID": 43
  },
  {
    "id": 3580,
    "name": "Mayo-Kebbi Est",
    "iso2": "ME",
    "native": "Micha-cube EST",
    "latitude": "10.12661800",
    "longitude": "15.81834500",
    "type": "province",
    "timezone": "Africa/Ndjamena",
    "CountryID": 43
  },
  {
    "id": 3571,
    "name": "Mayo-Kebbi Ouest",
    "iso2": "MO",
    "native": "Mayo-kebbi Oust",
    "latitude": "9.26403830",
    "longitude": "14.71515980",
    "type": "province",
    "timezone": "Africa/Ndjamena",
    "CountryID": 43
  },
  {
    "id": 3570,
    "name": "Moyen-Chari",
    "iso2": "MC",
    "native": "Moyen-Chari",
    "latitude": "9.44077680",
    "longitude": "18.81609270",
    "type": "province",
    "timezone": "Africa/Ndjamena",
    "CountryID": 43
  },
  {
    "id": 3586,
    "name": "N'Djamena",
    "iso2": "ND",
    "native": "N'Djamena",
    "latitude": "12.11915430",
    "longitude": "15.05027580",
    "type": "province",
    "timezone": "Africa/Ndjamena",
    "CountryID": 43
  },
  {
    "id": 3582,
    "name": "Ouaddaï",
    "iso2": "OD",
    "native": "Ouaddaï",
    "latitude": "13.46135690",
    "longitude": "21.28844500",
    "type": "province",
    "timezone": "Africa/Ndjamena",
    "CountryID": 43
  },
  {
    "id": 3592,
    "name": "Salamat",
    "iso2": "SA",
    "native": "Merci",
    "latitude": "10.75755960",
    "longitude": "20.69341160",
    "type": "province",
    "timezone": "Africa/Ndjamena",
    "CountryID": 43
  },
  {
    "id": 3572,
    "name": "Sila",
    "iso2": "SI",
    "native": "Ils sont",
    "latitude": "12.11786000",
    "longitude": "21.44588480",
    "type": "province",
    "timezone": "Africa/Ndjamena",
    "CountryID": 43
  },
  {
    "id": 3579,
    "name": "Tandjilé",
    "iso2": "TA",
    "native": "Dentaire",
    "latitude": "9.57130510",
    "longitude": "16.52949560",
    "type": "province",
    "timezone": "Africa/Ndjamena",
    "CountryID": 43
  },
  {
    "id": 3587,
    "name": "Tibesti",
    "iso2": "TI",
    "native": "Tibesti",
    "latitude": "21.40073910",
    "longitude": "17.47427630",
    "type": "province",
    "timezone": "Africa/Ndjamena",
    "CountryID": 43
  },
  {
    "id": 3581,
    "name": "Wadi Fira",
    "iso2": "WF",
    "native": "Wadi Fira",
    "latitude": "15.01914490",
    "longitude": "21.46731900",
    "type": "province",
    "timezone": "Africa/Ndjamena",
    "CountryID": 43
  }
]