[
  {
    "id": 22011,
    "name": "Acherítou",
    "latitude": "35.10022000",
    "longitude": "33.86155000",
    "CountryID": 57,
    "StateID": 749
  },
  {
    "id": 22102,
    "name": "Áchna",
    "latitude": "35.05515000",
    "longitude": "33.78388000",
    "CountryID": 57,
    "StateID": 749
  },
  {
    "id": 22014,
    "name": "Ammochostos",
    "latitude": "35.11755000",
    "longitude": "33.94335000",
    "CountryID": 57,
    "StateID": 749
  },
  {
    "id": 22020,
    "name": "Avgórou",
    "latitude": "35.03615000",
    "longitude": "33.83918000",
    "CountryID": 57,
    "StateID": 749
  },
  {
    "id": 22021,
    "name": "Ayia Napa",
    "latitude": "34.98213000",
    "longitude": "34.00183000",
    "CountryID": 57,
    "StateID": 749
  },
  {
    "id": 22023,
    "name": "Derýneia",
    "latitude": "35.06484000",
    "longitude": "33.96083000",
    "CountryID": 57,
    "StateID": 749
  },
  {
    "id": 22029,
    "name": "Famagusta",
    "latitude": "35.12054000",
    "longitude": "33.93894000",
    "CountryID": 57,
    "StateID": 749
  },
  {
    "id": 22030,
    "name": "Frénaros",
    "latitude": "35.04121000",
    "longitude": "33.92242000",
    "CountryID": 57,
    "StateID": 749
  },
  {
    "id": 22052,
    "name": "Lefkónoiko",
    "latitude": "35.25980000",
    "longitude": "33.73189000",
    "CountryID": 57,
    "StateID": 749
  },
  {
    "id": 22054,
    "name": "Leonárisso",
    "latitude": "35.46892000",
    "longitude": "34.13886000",
    "CountryID": 57,
    "StateID": 749
  },
  {
    "id": 22056,
    "name": "Liopétri",
    "latitude": "35.00885000",
    "longitude": "33.89256000",
    "CountryID": 57,
    "StateID": 749
  },
  {
    "id": 22072,
    "name": "Paralímni",
    "latitude": "35.03945000",
    "longitude": "33.98181000",
    "CountryID": 57,
    "StateID": 749
  },
  {
    "id": 22078,
    "name": "Protaras",
    "latitude": "35.01250000",
    "longitude": "34.05833000",
    "CountryID": 57,
    "StateID": 749
  },
  {
    "id": 22090,
    "name": "Rizokárpaso",
    "latitude": "35.59719000",
    "longitude": "34.37916000",
    "CountryID": 57,
    "StateID": 749
  },
  {
    "id": 22095,
    "name": "Tríkomo",
    "latitude": "35.28628000",
    "longitude": "33.89167000",
    "CountryID": 57,
    "StateID": 749
  },
  {
    "id": 22045,
    "name": "Kyrenia",
    "latitude": "35.33634000",
    "longitude": "33.31729000",
    "CountryID": 57,
    "StateID": 744
  },
  {
    "id": 22046,
    "name": "Kyrenia Municipality",
    "latitude": "35.33672000",
    "longitude": "33.31504000",
    "CountryID": 57,
    "StateID": 744
  },
  {
    "id": 22059,
    "name": "Lápithos",
    "latitude": "35.33823000",
    "longitude": "33.17368000",
    "CountryID": 57,
    "StateID": 744
  },
  {
    "id": 22015,
    "name": "Aradíppou",
    "latitude": "34.95151000",
    "longitude": "33.59199000",
    "CountryID": 57,
    "StateID": 747
  },
  {
    "id": 22019,
    "name": "Athíenou",
    "latitude": "35.06180000",
    "longitude": "33.54156000",
    "CountryID": 57,
    "StateID": 747
  },
  {
    "id": 22024,
    "name": "Dhromolaxia",
    "latitude": "34.87551000",
    "longitude": "33.58684000",
    "CountryID": 57,
    "StateID": 747
  },
  {
    "id": 22049,
    "name": "Kíti",
    "latitude": "34.84696000",
    "longitude": "33.57344000",
    "CountryID": 57,
    "StateID": 747
  },
  {
    "id": 22039,
    "name": "Kofínou",
    "latitude": "34.82449000",
    "longitude": "33.39130000",
    "CountryID": 57,
    "StateID": 747
  },
  {
    "id": 22042,
    "name": "Kolossi",
    "latitude": "34.66865000",
    "longitude": "32.93375000",
    "CountryID": 57,
    "StateID": 747
  },
  {
    "id": 22050,
    "name": "Kórnos",
    "latitude": "34.92396000",
    "longitude": "33.39764000",
    "CountryID": 57,
    "StateID": 747
  },
  {
    "id": 22051,
    "name": "Larnaca",
    "latitude": "34.92291000",
    "longitude": "33.62330000",
    "CountryID": 57,
    "StateID": 747
  },
  {
    "id": 22057,
    "name": "Livádia",
    "latitude": "34.95118000",
    "longitude": "33.62658000",
    "CountryID": 57,
    "StateID": 747
  },
  {
    "id": 22062,
    "name": "Meneou",
    "latitude": "34.86114000",
    "longitude": "33.59516000",
    "CountryID": 57,
    "StateID": 747
  },
  {
    "id": 22064,
    "name": "Mosfilotí",
    "latitude": "34.95256000",
    "longitude": "33.42511000",
    "CountryID": 57,
    "StateID": 747
  },
  {
    "id": 22087,
    "name": "Pérgamos",
    "latitude": "35.04167000",
    "longitude": "33.70833000",
    "CountryID": 57,
    "StateID": 747
  },
  {
    "id": 22076,
    "name": "Perivólia",
    "latitude": "34.83355000",
    "longitude": "33.58196000",
    "CountryID": 57,
    "StateID": 747
  },
  {
    "id": 22079,
    "name": "Psevdás",
    "latitude": "34.94653000",
    "longitude": "33.46277000",
    "CountryID": 57,
    "StateID": 747
  },
  {
    "id": 22089,
    "name": "Pýla",
    "latitude": "35.01237000",
    "longitude": "33.69188000",
    "CountryID": 57,
    "StateID": 747
  },
  {
    "id": 22093,
    "name": "Tersefánou",
    "latitude": "34.85411000",
    "longitude": "33.54746000",
    "CountryID": 57,
    "StateID": 747
  },
  {
    "id": 22094,
    "name": "Troúlloi",
    "latitude": "35.03203000",
    "longitude": "33.61501000",
    "CountryID": 57,
    "StateID": 747
  },
  {
    "id": 22099,
    "name": "Voróklini",
    "latitude": "34.98600000",
    "longitude": "33.65387000",
    "CountryID": 57,
    "StateID": 747
  },
  {
    "id": 22100,
    "name": "Xylofágou",
    "latitude": "34.97743000",
    "longitude": "33.84894000",
    "CountryID": 57,
    "StateID": 747
  },
  {
    "id": 22101,
    "name": "Xylotymbou",
    "latitude": "35.01720000",
    "longitude": "33.74245000",
    "CountryID": 57,
    "StateID": 747
  },
  {
    "id": 22103,
    "name": "Ágios Tomás",
    "latitude": "34.71158000",
    "longitude": "32.73129000",
    "CountryID": 57,
    "StateID": 748
  },
  {
    "id": 22104,
    "name": "Ágios Týchon",
    "latitude": "34.72606000",
    "longitude": "33.13872000",
    "CountryID": 57,
    "StateID": 748
  },
  {
    "id": 22028,
    "name": "Erími",
    "latitude": "34.67766000",
    "longitude": "32.91815000",
    "CountryID": 57,
    "StateID": 748
  },
  {
    "id": 22031,
    "name": "Germasógeia",
    "latitude": "34.72207000",
    "longitude": "33.08254000",
    "CountryID": 57,
    "StateID": 748
  },
  {
    "id": 22044,
    "name": "Kyperoúnta",
    "latitude": "34.93815000",
    "longitude": "32.97551000",
    "CountryID": 57,
    "StateID": 748
  },
  {
    "id": 22053,
    "name": "Lemesós",
    "latitude": "34.69218000",
    "longitude": "33.02854000",
    "CountryID": 57,
    "StateID": 748
  },
  {
    "id": 22055,
    "name": "Limassol",
    "latitude": "34.68406000",
    "longitude": "33.03794000",
    "CountryID": 57,
    "StateID": 748
  },
  {
    "id": 22065,
    "name": "Mouttagiáka",
    "latitude": "34.72022000",
    "longitude": "33.10066000",
    "CountryID": 57,
    "StateID": 748
  },
  {
    "id": 22082,
    "name": "Páchna",
    "latitude": "34.77874000",
    "longitude": "32.79355000",
    "CountryID": 57,
    "StateID": 748
  },
  {
    "id": 22084,
    "name": "Páno Polemídia",
    "latitude": "34.70559000",
    "longitude": "32.99269000",
    "CountryID": 57,
    "StateID": 748
  },
  {
    "id": 22073,
    "name": "Parekklisha",
    "latitude": "34.74583000",
    "longitude": "33.15833000",
    "CountryID": 57,
    "StateID": 748
  },
  {
    "id": 22074,
    "name": "Peléndri",
    "latitude": "34.89597000",
    "longitude": "32.96817000",
    "CountryID": 57,
    "StateID": 748
  },
  {
    "id": 22077,
    "name": "Pissoúri",
    "latitude": "34.66942000",
    "longitude": "32.70132000",
    "CountryID": 57,
    "StateID": 748
  },
  {
    "id": 22081,
    "name": "Pyrgos",
    "latitude": "34.74167000",
    "longitude": "33.18333000",
    "CountryID": 57,
    "StateID": 748
  },
  {
    "id": 22091,
    "name": "Sotíra",
    "latitude": "34.71189000",
    "longitude": "32.86340000",
    "CountryID": 57,
    "StateID": 748
  },
  {
    "id": 22092,
    "name": "Soúni-Zanakiá",
    "latitude": "34.73570000",
    "longitude": "32.88437000",
    "CountryID": 57,
    "StateID": 748
  },
  {
    "id": 22105,
    "name": "Ýpsonas",
    "latitude": "34.68797000",
    "longitude": "32.96191000",
    "CountryID": 57,
    "StateID": 748
  },
  {
    "id": 22012,
    "name": "Akáki",
    "latitude": "35.13341000",
    "longitude": "33.12873000",
    "CountryID": 57,
    "StateID": 745
  },
  {
    "id": 22013,
    "name": "Alámpra",
    "latitude": "34.98898000",
    "longitude": "33.39887000",
    "CountryID": 57,
    "StateID": 745
  },
  {
    "id": 22016,
    "name": "Aredioú",
    "latitude": "35.04844000",
    "longitude": "33.19610000",
    "CountryID": 57,
    "StateID": 745
  },
  {
    "id": 22018,
    "name": "Astromerítis",
    "latitude": "35.14096000",
    "longitude": "33.03793000",
    "CountryID": 57,
    "StateID": 745
  },
  {
    "id": 22025,
    "name": "Dáli",
    "latitude": "35.02294000",
    "longitude": "33.42195000",
    "CountryID": 57,
    "StateID": 745
  },
  {
    "id": 22027,
    "name": "Ergátes",
    "latitude": "35.05365000",
    "longitude": "33.24292000",
    "CountryID": 57,
    "StateID": 745
  },
  {
    "id": 22035,
    "name": "Géri",
    "latitude": "35.10560000",
    "longitude": "33.41977000",
    "CountryID": 57,
    "StateID": 745
  },
  {
    "id": 22036,
    "name": "Kakopetriá",
    "latitude": "34.98768000",
    "longitude": "32.90468000",
    "CountryID": 57,
    "StateID": 745
  },
  {
    "id": 22047,
    "name": "Káto Defterá",
    "latitude": "35.08489000",
    "longitude": "33.27558000",
    "CountryID": 57,
    "StateID": 745
  },
  {
    "id": 22048,
    "name": "Káto Pýrgos",
    "latitude": "35.17897000",
    "longitude": "32.68600000",
    "CountryID": 57,
    "StateID": 745
  },
  {
    "id": 22038,
    "name": "Klírou",
    "latitude": "35.02004000",
    "longitude": "33.17806000",
    "CountryID": 57,
    "StateID": 745
  },
  {
    "id": 22040,
    "name": "Kokkinotrimithiá",
    "latitude": "35.15303000",
    "longitude": "33.19966000",
    "CountryID": 57,
    "StateID": 745
  },
  {
    "id": 22060,
    "name": "Léfka",
    "latitude": "35.11199000",
    "longitude": "32.84997000",
    "CountryID": 57,
    "StateID": 745
  },
  {
    "id": 22061,
    "name": "Lýmpia",
    "latitude": "34.99889000",
    "longitude": "33.46175000",
    "CountryID": 57,
    "StateID": 745
  },
  {
    "id": 22058,
    "name": "Lythrodóntas",
    "latitude": "34.95105000",
    "longitude": "33.29777000",
    "CountryID": 57,
    "StateID": 745
  },
  {
    "id": 22066,
    "name": "Mámmari",
    "latitude": "35.17604000",
    "longitude": "33.20435000",
    "CountryID": 57,
    "StateID": 745
  },
  {
    "id": 22067,
    "name": "Méniko",
    "latitude": "35.10945000",
    "longitude": "33.14474000",
    "CountryID": 57,
    "StateID": 745
  },
  {
    "id": 22068,
    "name": "Mórfou",
    "latitude": "35.19869000",
    "longitude": "32.99338000",
    "CountryID": 57,
    "StateID": 745
  },
  {
    "id": 22069,
    "name": "Nicosia",
    "latitude": "35.17531000",
    "longitude": "33.36420000",
    "CountryID": 57,
    "StateID": 745
  },
  {
    "id": 22070,
    "name": "Nicosia Municipality",
    "latitude": "35.16944000",
    "longitude": "33.36081000",
    "CountryID": 57,
    "StateID": 745
  },
  {
    "id": 22083,
    "name": "Páno Defterá",
    "latitude": "35.07778000",
    "longitude": "33.26584000",
    "CountryID": 57,
    "StateID": 745
  },
  {
    "id": 22086,
    "name": "Péra",
    "latitude": "35.03350000",
    "longitude": "33.25413000",
    "CountryID": 57,
    "StateID": 745
  },
  {
    "id": 22075,
    "name": "Peristeróna",
    "latitude": "35.12928000",
    "longitude": "33.07858000",
    "CountryID": 57,
    "StateID": 745
  },
  {
    "id": 22080,
    "name": "Psimolofou",
    "latitude": "35.06250000",
    "longitude": "33.26250000",
    "CountryID": 57,
    "StateID": 745
  },
  {
    "id": 22097,
    "name": "Tséri",
    "latitude": "35.07307000",
    "longitude": "33.32344000",
    "CountryID": 57,
    "StateID": 745
  },
  {
    "id": 22017,
    "name": "Argáka",
    "latitude": "35.06646000",
    "longitude": "32.49446000",
    "CountryID": 57,
    "StateID": 746
  },
  {
    "id": 22022,
    "name": "Chlórakas",
    "latitude": "34.79768000",
    "longitude": "32.41207000",
    "CountryID": 57,
    "StateID": 746
  },
  {
    "id": 22026,
    "name": "Emba",
    "latitude": "34.80700000",
    "longitude": "32.42406000",
    "CountryID": 57,
    "StateID": 746
  },
  {
    "id": 22032,
    "name": "Geroskipou",
    "latitude": "34.75498000",
    "longitude": "32.45155000",
    "CountryID": 57,
    "StateID": 746
  },
  {
    "id": 22033,
    "name": "Geroskípou (quarter)",
    "latitude": "34.76190000",
    "longitude": "32.45135000",
    "CountryID": 57,
    "StateID": 746
  },
  {
    "id": 22034,
    "name": "Geroskípou Municipality",
    "latitude": "34.75142000",
    "longitude": "32.45449000",
    "CountryID": 57,
    "StateID": 746
  },
  {
    "id": 22037,
    "name": "Kissonerga",
    "latitude": "34.82279000",
    "longitude": "32.40131000",
    "CountryID": 57,
    "StateID": 746
  },
  {
    "id": 22041,
    "name": "Koloni",
    "latitude": "34.75228000",
    "longitude": "32.46487000",
    "CountryID": 57,
    "StateID": 746
  },
  {
    "id": 22043,
    "name": "Konia",
    "latitude": "34.78516000",
    "longitude": "32.45900000",
    "CountryID": 57,
    "StateID": 746
  },
  {
    "id": 22063,
    "name": "Mesógi",
    "latitude": "34.81577000",
    "longitude": "32.45542000",
    "CountryID": 57,
    "StateID": 746
  },
  {
    "id": 22071,
    "name": "Paphos",
    "latitude": "34.77679000",
    "longitude": "32.42451000",
    "CountryID": 57,
    "StateID": 746
  },
  {
    "id": 22085,
    "name": "Pégeia",
    "latitude": "34.88341000",
    "longitude": "32.38166000",
    "CountryID": 57,
    "StateID": 746
  },
  {
    "id": 22088,
    "name": "Pólis",
    "latitude": "35.03534000",
    "longitude": "32.42575000",
    "CountryID": 57,
    "StateID": 746
  },
  {
    "id": 22098,
    "name": "Tála",
    "latitude": "34.83745000",
    "longitude": "32.43272000",
    "CountryID": 57,
    "StateID": 746
  },
  {
    "id": 22096,
    "name": "Tsáda",
    "latitude": "34.83801000",
    "longitude": "32.47547000",
    "CountryID": 57,
    "StateID": 746
  }
]