[
  {
    "id": 3235,
    "name": "Alexandria",
    "iso2": "ALX",
    "native": "الإسكندرية",
    "latitude": "30.94329830",
    "longitude": "29.76564500",
    "type": "governorate",
    "timezone": "Africa/Cairo",
    "CountryID": 65
  },
  {
    "id": 3225,
    "name": "Aswan",
    "iso2": "ASN",
    "native": "أسوان",
    "latitude": "23.66752870",
    "longitude": "32.69164770",
    "type": "governorate",
    "timezone": "Africa/Cairo",
    "CountryID": 65
  },
  {
    "id": 3236,
    "name": "Asyut",
    "iso2": "AST",
    "native": "أسيوط",
    "latitude": "27.20651320",
    "longitude": "31.55002820",
    "type": "governorate",
    "timezone": "Africa/Cairo",
    "CountryID": 65
  },
  {
    "id": 3241,
    "name": "Beheira",
    "iso2": "BH",
    "native": "البحيرة",
    "latitude": "30.79152060",
    "longitude": "30.34654880",
    "type": "governorate",
    "timezone": "Africa/Cairo",
    "CountryID": 65
  },
  {
    "id": 3230,
    "name": "Beni Suef",
    "iso2": "BNS",
    "native": "بني سويف",
    "latitude": "29.07298120",
    "longitude": "31.09825620",
    "type": "governorate",
    "timezone": "Africa/Cairo",
    "CountryID": 65
  },
  {
    "id": 3223,
    "name": "Cairo",
    "iso2": "C",
    "native": "القاهرة",
    "latitude": "30.03325160",
    "longitude": "31.56216510",
    "type": "governorate",
    "timezone": "Africa/Cairo",
    "CountryID": 65
  },
  {
    "id": 3245,
    "name": "Dakahlia",
    "iso2": "DK",
    "native": "الدقهلية",
    "latitude": "31.13800460",
    "longitude": "31.88824990",
    "type": "governorate",
    "timezone": "Africa/Cairo",
    "CountryID": 65
  },
  {
    "id": 3224,
    "name": "Damietta",
    "iso2": "DT",
    "native": "دمياط",
    "latitude": "31.41133310",
    "longitude": "31.75570720",
    "type": "governorate",
    "timezone": "Africa/Cairo",
    "CountryID": 65
  },
  {
    "id": 3238,
    "name": "Faiyum",
    "iso2": "FYM",
    "native": "الفيوم",
    "latitude": "29.30840210",
    "longitude": "30.84284970",
    "type": "governorate",
    "timezone": "Africa/Cairo",
    "CountryID": 65
  },
  {
    "id": 3234,
    "name": "Gharbia",
    "iso2": "GH",
    "native": "الغربية",
    "latitude": "30.83919470",
    "longitude": "31.00160720",
    "type": "governorate",
    "timezone": "Africa/Cairo",
    "CountryID": 65
  },
  {
    "id": 3239,
    "name": "Giza",
    "iso2": "GZ",
    "native": "الجيزة",
    "latitude": "29.05403570",
    "longitude": "29.41908070",
    "type": "governorate",
    "timezone": "Africa/Cairo",
    "CountryID": 65
  },
  {
    "id": 3244,
    "name": "Ismailia",
    "iso2": "IS",
    "native": "الإسماعيلية",
    "latitude": "30.60437750",
    "longitude": "32.27708250",
    "type": "governorate",
    "timezone": "Africa/Cairo",
    "CountryID": 65
  },
  {
    "id": 3222,
    "name": "Kafr El-Sheikh",
    "iso2": "KFS",
    "native": "كفر الشيخ",
    "latitude": "31.38147650",
    "longitude": "30.85135660",
    "type": "governorate",
    "timezone": "Africa/Cairo",
    "CountryID": 65
  },
  {
    "id": 3242,
    "name": "Luxor",
    "iso2": "LX",
    "native": "الأقصر",
    "latitude": "25.70209600",
    "longitude": "32.64718600",
    "type": "governorate",
    "timezone": "Africa/Cairo",
    "CountryID": 65
  },
  {
    "id": 3231,
    "name": "Matrouh",
    "iso2": "MT",
    "native": "مطروح",
    "latitude": "29.78763850",
    "longitude": "27.42704100",
    "type": "governorate",
    "timezone": "Africa/Cairo",
    "CountryID": 65
  },
  {
    "id": 3243,
    "name": "Minya",
    "iso2": "MN",
    "native": "المنيا",
    "latitude": "28.08933250",
    "longitude": "30.75706230",
    "type": "governorate",
    "timezone": "Africa/Cairo",
    "CountryID": 65
  },
  {
    "id": 3228,
    "name": "Monufia",
    "iso2": "MNF",
    "native": "المنوفية",
    "latitude": "30.43700980",
    "longitude": "30.74668520",
    "type": "governorate",
    "timezone": "Africa/Cairo",
    "CountryID": 65
  },
  {
    "id": 3246,
    "name": "New Valley",
    "iso2": "WAD",
    "native": "الوادي الجديد",
    "latitude": "24.87666650",
    "longitude": "28.77573450",
    "type": "governorate",
    "timezone": "Africa/Cairo",
    "CountryID": 65
  },
  {
    "id": 3227,
    "name": "North Sinai",
    "iso2": "SIN",
    "native": "شمال سيناء",
    "latitude": "30.50428030",
    "longitude": "33.59100600",
    "type": "governorate",
    "timezone": "Africa/Cairo",
    "CountryID": 65
  },
  {
    "id": 3229,
    "name": "Port Said",
    "iso2": "PTS",
    "native": "بورسعيد",
    "latitude": "31.18212750",
    "longitude": "32.37258200",
    "type": "governorate",
    "timezone": "Africa/Cairo",
    "CountryID": 65
  },
  {
    "id": 3232,
    "name": "Qalyubia",
    "iso2": "KB",
    "native": "القليوبية",
    "latitude": "30.32923680",
    "longitude": "31.21684660",
    "type": "governorate",
    "timezone": "Africa/Cairo",
    "CountryID": 65
  },
  {
    "id": 3247,
    "name": "Qena",
    "iso2": "KN",
    "native": "قنا",
    "latitude": "26.15930970",
    "longitude": "32.71628550",
    "type": "governorate",
    "timezone": "Africa/Cairo",
    "CountryID": 65
  },
  {
    "id": 3240,
    "name": "Red Sea",
    "iso2": "BA",
    "native": "البحر الأحمر",
    "latitude": "25.58672790",
    "longitude": "34.16946410",
    "type": "governorate",
    "timezone": "Africa/Cairo",
    "CountryID": 65
  },
  {
    "id": 5067,
    "name": "Sharqia",
    "iso2": "SHR",
    "native": "الشرقية",
    "latitude": "30.63327750",
    "longitude": "31.78937390",
    "type": "governorate",
    "timezone": "Africa/Cairo",
    "CountryID": 65
  },
  {
    "id": 3226,
    "name": "Sohag",
    "iso2": "SHG",
    "native": "سوهاج",
    "latitude": "26.76246280",
    "longitude": "32.09099360",
    "type": "governorate",
    "timezone": "Africa/Cairo",
    "CountryID": 65
  },
  {
    "id": 3237,
    "name": "South Sinai",
    "iso2": "JS",
    "native": "جنوب سيناء",
    "latitude": "28.64495640",
    "longitude": "33.87113130",
    "type": "governorate",
    "timezone": "Africa/Cairo",
    "CountryID": 65
  },
  {
    "id": 3233,
    "name": "Suez",
    "iso2": "SUZ",
    "native": "السويس",
    "latitude": "29.41654270",
    "longitude": "32.14909670",
    "type": "governorate",
    "timezone": "Africa/Cairo",
    "CountryID": 65
  }
]