[
  {
    "id": 5706,
    "name": "Dushanbe",
    "iso2": "DU",
    "native": "Душанбе",
    "latitude": "38.53666667",
    "longitude": "68.78000000",
    "type": "capital territory",
    "timezone": "Asia/Dushanbe",
    "CountryID": 217
  },
  {
    "id": 3399,
    "name": "Gorno-Badakhshan",
    "iso2": "GB",
    "native": "Вилаҳмо-Бадахшон",
    "latitude": "38.34924570",
    "longitude": "72.99881680",
    "type": "autonomous region",
    "timezone": "Asia/Dushanbe",
    "CountryID": 217
  },
  {
    "id": 3398,
    "name": "Khatlon",
    "iso2": "KT",
    "native": "Вилоят",
    "latitude": "37.88047340",
    "longitude": "69.26369230",
    "type": "region",
    "timezone": "Asia/Dushanbe",
    "CountryID": 217
  },
  {
    "id": 3397,
    "name": "Nohiyahoi Tobei Jumhurí ",
    "iso2": "RA",
    "native": "Nohiyahoi Tobei Jumhurí ",
    "latitude": "39.08579020",
    "longitude": "70.24083250",
    "type": "districts under republic administration",
    "timezone": "Asia/Dushanbe",
    "CountryID": 217
  },
  {
    "id": 3400,
    "name": "Sughd ",
    "iso2": "SU",
    "native": "Суғд",
    "latitude": "39.35486020",
    "longitude": "68.82680120",
    "type": "region",
    "timezone": "Asia/Dushanbe",
    "CountryID": 217
  }
]