[
  {
    "id": 67343,
    "name": "Andrijevica",
    "latitude": "42.73389000",
    "longitude": "19.79194000",
    "CountryID": 147,
    "StateID": 23
  },
  {
    "id": 67344,
    "name": "Bar",
    "latitude": "42.09306000",
    "longitude": "19.10028000",
    "CountryID": 147,
    "StateID": 13
  },
  {
    "id": 67369,
    "name": "Stari Bar",
    "latitude": "42.09700000",
    "longitude": "19.13600000",
    "CountryID": 147,
    "StateID": 13
  },
  {
    "id": 67375,
    "name": "Šušanj",
    "latitude": "42.11556000",
    "longitude": "19.08833000",
    "CountryID": 147,
    "StateID": 13
  },
  {
    "id": 67370,
    "name": "Sutomore",
    "latitude": "42.14278000",
    "longitude": "19.04667000",
    "CountryID": 147,
    "StateID": 13
  },
  {
    "id": 67345,
    "name": "Berane",
    "latitude": "42.84250000",
    "longitude": "19.87333000",
    "CountryID": 147,
    "StateID": 21
  },
  {
    "id": 67346,
    "name": "Bijelo Polje",
    "latitude": "43.03834000",
    "longitude": "19.74758000",
    "CountryID": 147,
    "StateID": 25
  },
  {
    "id": 67347,
    "name": "Budva",
    "latitude": "42.28639000",
    "longitude": "18.84000000",
    "CountryID": 147,
    "StateID": 30
  },
  {
    "id": 67360,
    "name": "Petrovac na Moru",
    "latitude": "42.20556000",
    "longitude": "18.94250000",
    "CountryID": 147,
    "StateID": 30
  },
  {
    "id": 67349,
    "name": "Danilovgrad",
    "latitude": "42.55384000",
    "longitude": "19.14608000",
    "CountryID": 147,
    "StateID": 14
  },
  {
    "id": 67368,
    "name": "Spuž",
    "latitude": "42.51500000",
    "longitude": "19.19500000",
    "CountryID": 147,
    "StateID": 14
  },
  {
    "id": 67353,
    "name": "Gusinje",
    "latitude": "42.56194000",
    "longitude": "19.83389000",
    "CountryID": 147,
    "StateID": 24
  },
  {
    "id": 160067,
    "name": "Bijela",
    "latitude": "42.44778000",
    "longitude": "18.65972000",
    "CountryID": 147,
    "StateID": 5682
  },
  {
    "id": 160064,
    "name": "Herceg Novi",
    "latitude": "42.45306000",
    "longitude": "18.53722000",
    "CountryID": 147,
    "StateID": 5682
  },
  {
    "id": 160065,
    "name": "Igalo",
    "latitude": "42.45583000",
    "longitude": "18.51667000",
    "CountryID": 147,
    "StateID": 5682
  },
  {
    "id": 160066,
    "name": "Kamenari",
    "latitude": "42.46167000",
    "longitude": "18.68806000",
    "CountryID": 147,
    "StateID": 5682
  },
  {
    "id": 67354,
    "name": "Kolašin",
    "latitude": "42.82229000",
    "longitude": "19.51653000",
    "CountryID": 147,
    "StateID": 31
  },
  {
    "id": 67350,
    "name": "Dobrota",
    "latitude": "42.45417000",
    "longitude": "18.76833000",
    "CountryID": 147,
    "StateID": 26
  },
  {
    "id": 67355,
    "name": "Kotor",
    "latitude": "42.42067000",
    "longitude": "18.76825000",
    "CountryID": 147,
    "StateID": 26
  },
  {
    "id": 67365,
    "name": "Prčanj",
    "latitude": "42.45750000",
    "longitude": "18.74222000",
    "CountryID": 147,
    "StateID": 26
  },
  {
    "id": 67366,
    "name": "Risan",
    "latitude": "42.51500000",
    "longitude": "18.69556000",
    "CountryID": 147,
    "StateID": 26
  },
  {
    "id": 67358,
    "name": "Mojkovac",
    "latitude": "42.96044000",
    "longitude": "19.58330000",
    "CountryID": 147,
    "StateID": 22
  },
  {
    "id": 67359,
    "name": "Nikšić",
    "latitude": "42.77310000",
    "longitude": "18.94446000",
    "CountryID": 147,
    "StateID": 17
  },
  {
    "id": 67348,
    "name": "Cetinje",
    "latitude": "42.39063000",
    "longitude": "18.91417000",
    "CountryID": 147,
    "StateID": 28
  },
  {
    "id": 67361,
    "name": "Plav",
    "latitude": "42.59694000",
    "longitude": "19.94556000",
    "CountryID": 147,
    "StateID": 19
  },
  {
    "id": 67362,
    "name": "Pljevlja",
    "latitude": "43.35670000",
    "longitude": "19.35843000",
    "CountryID": 147,
    "StateID": 20
  },
  {
    "id": 67363,
    "name": "Plužine",
    "latitude": "43.15278000",
    "longitude": "18.83944000",
    "CountryID": 147,
    "StateID": 16
  },
  {
    "id": 67352,
    "name": "Goričani",
    "latitude": "42.33222000",
    "longitude": "19.21194000",
    "CountryID": 147,
    "StateID": 27
  },
  {
    "id": 67357,
    "name": "Mojanovići",
    "latitude": "42.34167000",
    "longitude": "19.22139000",
    "CountryID": 147,
    "StateID": 27
  },
  {
    "id": 67364,
    "name": "Podgorica",
    "latitude": "42.44111000",
    "longitude": "19.26361000",
    "CountryID": 147,
    "StateID": 27
  },
  {
    "id": 67367,
    "name": "Rožaje",
    "latitude": "42.83299000",
    "longitude": "20.16652000",
    "CountryID": 147,
    "StateID": 15
  },
  {
    "id": 67374,
    "name": "Šavnik",
    "latitude": "42.95639000",
    "longitude": "19.09667000",
    "CountryID": 147,
    "StateID": 18
  },
  {
    "id": 67371,
    "name": "Tivat",
    "latitude": "42.43639000",
    "longitude": "18.69611000",
    "CountryID": 147,
    "StateID": 29
  },
  {
    "id": 160068,
    "name": "Dinoša",
    "latitude": "42.38333000",
    "longitude": "19.38333000",
    "CountryID": 147,
    "StateID": 5683
  },
  {
    "id": 67356,
    "name": "Mataguži",
    "latitude": "42.35000000",
    "longitude": "19.41667000",
    "CountryID": 147,
    "StateID": 5683
  },
  {
    "id": 67372,
    "name": "Tuzi",
    "latitude": "42.36667000",
    "longitude": "19.40000000",
    "CountryID": 147,
    "StateID": 5683
  },
  {
    "id": 67373,
    "name": "Ulcinj",
    "latitude": "41.92936000",
    "longitude": "19.22436000",
    "CountryID": 147,
    "StateID": 33
  },
  {
    "id": 67376,
    "name": "Žabljak",
    "latitude": "43.15423000",
    "longitude": "19.12325000",
    "CountryID": 147,
    "StateID": 32
  },
  {
    "id": 67351,
    "name": "Golubovci",
    "latitude": "42.36667000",
    "longitude": "19.23333000",
    "CountryID": 147,
    "StateID": 5684
  },
  {
    "id": 160069,
    "name": "Ponari",
    "latitude": "42.40000000",
    "longitude": "19.28333000",
    "CountryID": 147,
    "StateID": 5684
  }
]