[
  {
    "id": 110,
    "name": "Attard",
    "iso2": "01",
    "native": "Attard",
    "latitude": "35.89091720",
    "longitude": "14.44300930",
    "type": "local council",
    "timezone": "Europe/Malta",
    "CountryID": 135
  },
  {
    "id": 108,
    "name": "Balzan",
    "iso2": "02",
    "native": "Balzan",
    "latitude": "35.89574140",
    "longitude": "14.45340650",
    "type": "local council",
    "timezone": "Europe/Malta",
    "CountryID": 135
  },
  {
    "id": 107,
    "name": "Birgu",
    "iso2": "03",
    "native": "Birgu",
    "latitude": "35.88792140",
    "longitude": "14.52256200",
    "type": "local council",
    "timezone": "Europe/Malta",
    "CountryID": 135
  },
  {
    "id": 97,
    "name": "Birkirkara",
    "iso2": "04",
    "native": "Birkirkara",
    "latitude": "35.89547060",
    "longitude": "14.46650720",
    "type": "local council",
    "timezone": "Europe/Malta",
    "CountryID": 135
  },
  {
    "id": 88,
    "name": "Birżebbuġa",
    "iso2": "05",
    "native": "Birżebbuġa",
    "latitude": "35.82694780",
    "longitude": "14.52741890",
    "type": "local council",
    "timezone": "Europe/Malta",
    "CountryID": 135
  },
  {
    "id": 138,
    "name": "Cospicua",
    "iso2": "06",
    "native": "Evidenti",
    "latitude": "35.88067530",
    "longitude": "14.52183380",
    "type": "local council",
    "timezone": "Europe/Malta",
    "CountryID": 135
  },
  {
    "id": 117,
    "name": "Dingli",
    "iso2": "07",
    "native": "Dingli",
    "latitude": "35.86273090",
    "longitude": "14.38501070",
    "type": "local council",
    "timezone": "Europe/Malta",
    "CountryID": 135
  },
  {
    "id": 129,
    "name": "Fgura",
    "iso2": "08",
    "native": "Fgura",
    "latitude": "35.87382690",
    "longitude": "14.52329010",
    "type": "local council",
    "timezone": "Europe/Malta",
    "CountryID": 135
  },
  {
    "id": 84,
    "name": "Floriana",
    "iso2": "09",
    "native": "Floriana",
    "latitude": "35.89298380",
    "longitude": "14.50527160",
    "type": "local council",
    "timezone": "Europe/Malta",
    "CountryID": 135
  },
  {
    "id": 134,
    "name": "Fontana",
    "iso2": "10",
    "native": "Fontana",
    "latitude": "36.03874400",
    "longitude": "14.23700140",
    "type": "local council",
    "timezone": "Europe/Malta",
    "CountryID": 135
  },
  {
    "id": 130,
    "name": "Għajnsielem",
    "iso2": "13",
    "native": "Għajnsielem",
    "latitude": "36.02479660",
    "longitude": "14.28029610",
    "type": "local council",
    "timezone": "Europe/Malta",
    "CountryID": 135
  },
  {
    "id": 92,
    "name": "Għarb",
    "iso2": "14",
    "native": "Għarb",
    "latitude": "36.05981820",
    "longitude": "14.20908100",
    "type": "local council",
    "timezone": "Europe/Malta",
    "CountryID": 135
  },
  {
    "id": 120,
    "name": "Għargħur",
    "iso2": "15",
    "native": "Għargħur",
    "latitude": "35.92205690",
    "longitude": "14.45631760",
    "type": "local council",
    "timezone": "Europe/Malta",
    "CountryID": 135
  },
  {
    "id": 106,
    "name": "Għasri",
    "iso2": "16",
    "native": "Għasri",
    "latitude": "36.06680750",
    "longitude": "14.21924750",
    "type": "local council",
    "timezone": "Europe/Malta",
    "CountryID": 135
  },
  {
    "id": 124,
    "name": "Għaxaq",
    "iso2": "17",
    "native": "Għaxaq",
    "latitude": "35.84403590",
    "longitude": "14.51600900",
    "type": "local council",
    "timezone": "Europe/Malta",
    "CountryID": 135
  },
  {
    "id": 118,
    "name": "Gudja",
    "iso2": "11",
    "native": "Gudja",
    "latitude": "35.84698030",
    "longitude": "14.50290400",
    "type": "local council",
    "timezone": "Europe/Malta",
    "CountryID": 135
  },
  {
    "id": 113,
    "name": "Gżira",
    "iso2": "12",
    "native": "Gżira",
    "latitude": "35.90589700",
    "longitude": "14.49533380",
    "type": "local council",
    "timezone": "Europe/Malta",
    "CountryID": 135
  },
  {
    "id": 105,
    "name": "Ħamrun",
    "iso2": "18",
    "native": "Ħamrun",
    "latitude": "35.88612370",
    "longitude": "14.48834420",
    "type": "local council",
    "timezone": "Europe/Malta",
    "CountryID": 135
  },
  {
    "id": 93,
    "name": "Iklin",
    "iso2": "19",
    "native": "Iklin",
    "latitude": "35.90987740",
    "longitude": "14.45777320",
    "type": "local council",
    "timezone": "Europe/Malta",
    "CountryID": 135
  },
  {
    "id": 99,
    "name": "Kalkara",
    "iso2": "21",
    "native": "Kalkara",
    "latitude": "35.89142420",
    "longitude": "14.53202780",
    "type": "local council",
    "timezone": "Europe/Malta",
    "CountryID": 135
  },
  {
    "id": 91,
    "name": "Kerċem",
    "iso2": "22",
    "native": "Kerċem",
    "latitude": "36.04479390",
    "longitude": "14.22506050",
    "type": "local council",
    "timezone": "Europe/Malta",
    "CountryID": 135
  },
  {
    "id": 82,
    "name": "Kirkop",
    "iso2": "23",
    "native": "Kirkop",
    "latitude": "35.84378620",
    "longitude": "14.48543240",
    "type": "local council",
    "timezone": "Europe/Malta",
    "CountryID": 135
  },
  {
    "id": 126,
    "name": "Lija",
    "iso2": "24",
    "native": "Rabid",
    "latitude": "35.90176600",
    "longitude": "14.44761360",
    "type": "local council",
    "timezone": "Europe/Malta",
    "CountryID": 135
  },
  {
    "id": 77,
    "name": "Luqa",
    "iso2": "25",
    "native": "Luqa",
    "latitude": "35.85828650",
    "longitude": "14.48688830",
    "type": "local council",
    "timezone": "Europe/Malta",
    "CountryID": 135
  },
  {
    "id": 128,
    "name": "Marsa",
    "iso2": "26",
    "native": "Marsa",
    "latitude": "35.88289200",
    "longitude": "14.49448980",
    "type": "local council",
    "timezone": "Europe/Malta",
    "CountryID": 135
  },
  {
    "id": 137,
    "name": "Marsaskala",
    "iso2": "27",
    "native": "Marsaskala",
    "latitude": "35.86036400",
    "longitude": "14.55678760",
    "type": "local council",
    "timezone": "Europe/Malta",
    "CountryID": 135
  },
  {
    "id": 78,
    "name": "Marsaxlokk",
    "iso2": "28",
    "native": "Marsaxlokk",
    "latitude": "35.84116990",
    "longitude": "14.53930970",
    "type": "local council",
    "timezone": "Europe/Malta",
    "CountryID": 135
  },
  {
    "id": 89,
    "name": "Mdina",
    "iso2": "29",
    "native": "Mdina",
    "latitude": "35.88809300",
    "longitude": "14.40683570",
    "type": "local council",
    "timezone": "Europe/Malta",
    "CountryID": 135
  },
  {
    "id": 102,
    "name": "Mellieħa",
    "iso2": "30",
    "native": "Mellieħa",
    "latitude": "35.95996180",
    "longitude": "14.36836700",
    "type": "local council",
    "timezone": "Europe/Malta",
    "CountryID": 135
  },
  {
    "id": 109,
    "name": "Mġarr",
    "iso2": "31",
    "native": "Mġarr",
    "latitude": "35.91893270",
    "longitude": "14.36173430",
    "type": "local council",
    "timezone": "Europe/Malta",
    "CountryID": 135
  },
  {
    "id": 140,
    "name": "Mosta",
    "iso2": "32",
    "native": "Pont",
    "latitude": "35.91415040",
    "longitude": "14.42284270",
    "type": "local council",
    "timezone": "Europe/Malta",
    "CountryID": 135
  },
  {
    "id": 74,
    "name": "Mqabba",
    "iso2": "33",
    "native": "Mqabba",
    "latitude": "35.84441430",
    "longitude": "14.46941860",
    "type": "local council",
    "timezone": "Europe/Malta",
    "CountryID": 135
  },
  {
    "id": 96,
    "name": "Msida",
    "iso2": "34",
    "native": "Msida",
    "latitude": "35.89563880",
    "longitude": "14.48688830",
    "type": "local council",
    "timezone": "Europe/Malta",
    "CountryID": 135
  },
  {
    "id": 131,
    "name": "Mtarfa",
    "iso2": "35",
    "native": "Mtarfa",
    "latitude": "35.88951250",
    "longitude": "14.39519530",
    "type": "local council",
    "timezone": "Europe/Malta",
    "CountryID": 135
  },
  {
    "id": 132,
    "name": "Munxar",
    "iso2": "36",
    "native": "Munxar",
    "latitude": "36.02880580",
    "longitude": "14.22506050",
    "type": "local council",
    "timezone": "Europe/Malta",
    "CountryID": 135
  },
  {
    "id": 133,
    "name": "Nadur",
    "iso2": "37",
    "native": "Nadur",
    "latitude": "36.04470190",
    "longitude": "14.29192730",
    "type": "local council",
    "timezone": "Europe/Malta",
    "CountryID": 135
  },
  {
    "id": 112,
    "name": "Naxxar",
    "iso2": "38",
    "native": "Naxxar",
    "latitude": "35.91333960",
    "longitude": "14.44328510",
    "type": "local council",
    "timezone": "Europe/Malta",
    "CountryID": 135
  },
  {
    "id": 115,
    "name": "Paola",
    "iso2": "39",
    "native": "Paola",
    "latitude": "35.87179940",
    "longitude": "14.50737480",
    "type": "local council",
    "timezone": "Europe/Malta",
    "CountryID": 135
  },
  {
    "id": 125,
    "name": "Pembroke",
    "iso2": "40",
    "native": "Pembroke",
    "latitude": "35.92813130",
    "longitude": "14.47957220",
    "type": "local council",
    "timezone": "Europe/Malta",
    "CountryID": 135
  },
  {
    "id": 127,
    "name": "Pietà",
    "iso2": "41",
    "native": "Kompassjoni",
    "latitude": "35.89235300",
    "longitude": "14.49348810",
    "type": "local council",
    "timezone": "Europe/Malta",
    "CountryID": 135
  },
  {
    "id": 79,
    "name": "Qala",
    "iso2": "42",
    "native": "Qala",
    "latitude": "36.03886280",
    "longitude": "14.31810100",
    "type": "local council",
    "timezone": "Europe/Malta",
    "CountryID": 135
  },
  {
    "id": 119,
    "name": "Qormi",
    "iso2": "43",
    "native": "Qormi",
    "latitude": "35.87643880",
    "longitude": "14.46941860",
    "type": "local council",
    "timezone": "Europe/Malta",
    "CountryID": 135
  },
  {
    "id": 111,
    "name": "Qrendi",
    "iso2": "44",
    "native": "Qrendi",
    "latitude": "35.83284880",
    "longitude": "14.45486210",
    "type": "local council",
    "timezone": "Europe/Malta",
    "CountryID": 135
  },
  {
    "id": 83,
    "name": "Rabat",
    "iso2": "46",
    "native": "Rabat",
    "latitude": "35.88471700",
    "longitude": "14.37234000",
    "type": "local council",
    "timezone": "Europe/Malta",
    "CountryID": 135
  },
  {
    "id": 5642,
    "name": "Safi",
    "iso2": "47",
    "native": "Ħal Safi",
    "latitude": "35.83333333",
    "longitude": "14.48500000",
    "type": "local council",
    "timezone": "Europe/Malta",
    "CountryID": 135
  },
  {
    "id": 75,
    "name": "San Ġwann",
    "iso2": "49",
    "native": "San Ġwann",
    "latitude": "35.90773650",
    "longitude": "14.47524160",
    "type": "local council",
    "timezone": "Europe/Malta",
    "CountryID": 135
  },
  {
    "id": 87,
    "name": "San Lawrenz",
    "iso2": "50",
    "native": "San Lawrenz",
    "latitude": "36.05530050",
    "longitude": "14.20395030",
    "type": "local council",
    "timezone": "Europe/Malta",
    "CountryID": 135
  },
  {
    "id": 116,
    "name": "Sannat",
    "iso2": "52",
    "native": "Sannat",
    "latitude": "36.02730220",
    "longitude": "14.24290170",
    "type": "local council",
    "timezone": "Europe/Malta",
    "CountryID": 135
  },
  {
    "id": 94,
    "name": "Santa Luċija",
    "iso2": "53",
    "native": "Santa Luċija",
    "latitude": "35.85614200",
    "longitude": "14.50436000",
    "type": "local council",
    "timezone": "Europe/Malta",
    "CountryID": 135
  },
  {
    "id": 90,
    "name": "Santa Venera",
    "iso2": "54",
    "native": "Santa Venera",
    "latitude": "35.89022010",
    "longitude": "14.47669740",
    "type": "local council",
    "timezone": "Europe/Malta",
    "CountryID": 135
  },
  {
    "id": 136,
    "name": "Senglea",
    "iso2": "20",
    "native": "Senglea",
    "latitude": "35.88730410",
    "longitude": "14.51673710",
    "type": "local council",
    "timezone": "Europe/Malta",
    "CountryID": 135
  },
  {
    "id": 98,
    "name": "Siġġiewi",
    "iso2": "55",
    "native": "Siġġiewi",
    "latitude": "35.85393540",
    "longitude": "14.43806300",
    "type": "local council",
    "timezone": "Europe/Malta",
    "CountryID": 135
  },
  {
    "id": 104,
    "name": "Sliema",
    "iso2": "56",
    "native": "Sliema",
    "latitude": "35.91100810",
    "longitude": "14.50290400",
    "type": "local council",
    "timezone": "Europe/Malta",
    "CountryID": 135
  },
  {
    "id": 100,
    "name": "St. Julian's",
    "iso2": "48",
    "native": "San Ġiljan",
    "latitude": "35.91992250",
    "longitude": "14.48771190",
    "type": "local council",
    "timezone": "Europe/Malta",
    "CountryID": 135
  },
  {
    "id": 139,
    "name": "St. Paul's Bay",
    "iso2": "51",
    "native": "Bajja ta ’San Pawl",
    "latitude": "35.94807420",
    "longitude": "14.39739290",
    "type": "local council",
    "timezone": "Europe/Malta",
    "CountryID": 135
  },
  {
    "id": 86,
    "name": "Swieqi",
    "iso2": "57",
    "native": "Swieqi",
    "latitude": "35.91911820",
    "longitude": "14.46941860",
    "type": "local council",
    "timezone": "Europe/Malta",
    "CountryID": 135
  },
  {
    "id": 122,
    "name": "Ta' Xbiex",
    "iso2": "58",
    "native": "Ta' Xbiex",
    "latitude": "35.89914480",
    "longitude": "14.49635190",
    "type": "local council",
    "timezone": "Europe/Malta",
    "CountryID": 135
  },
  {
    "id": 103,
    "name": "Tarxien",
    "iso2": "59",
    "native": "Tarxien",
    "latitude": "35.86725520",
    "longitude": "14.51164050",
    "type": "local council",
    "timezone": "Europe/Malta",
    "CountryID": 135
  },
  {
    "id": 95,
    "name": "Valletta",
    "iso2": "60",
    "native": "Valletta",
    "latitude": "35.89890850",
    "longitude": "14.51455280",
    "type": "local council",
    "timezone": "Europe/Malta",
    "CountryID": 135
  },
  {
    "id": 101,
    "name": "Victoria",
    "iso2": "45",
    "native": "Victoria",
    "latitude": "36.04289070",
    "longitude": "14.23984790",
    "type": "local council",
    "timezone": "Europe/Malta",
    "CountryID": 135
  },
  {
    "id": 114,
    "name": "Xagħra",
    "iso2": "61",
    "native": "Xagħra",
    "latitude": "36.05084500",
    "longitude": "14.26748200",
    "type": "local council",
    "timezone": "Europe/Malta",
    "CountryID": 135
  },
  {
    "id": 121,
    "name": "Xewkija",
    "iso2": "62",
    "native": "Xewkija",
    "latitude": "36.02992360",
    "longitude": "14.25994370",
    "type": "local council",
    "timezone": "Europe/Malta",
    "CountryID": 135
  },
  {
    "id": 81,
    "name": "Xgħajra",
    "iso2": "63",
    "native": "Xgħajra",
    "latitude": "35.88682820",
    "longitude": "14.54723910",
    "type": "local council",
    "timezone": "Europe/Malta",
    "CountryID": 135
  },
  {
    "id": 123,
    "name": "Żabbar",
    "iso2": "64",
    "native": "Żabbar",
    "latitude": "35.87247150",
    "longitude": "14.54513540",
    "type": "local council",
    "timezone": "Europe/Malta",
    "CountryID": 135
  },
  {
    "id": 85,
    "name": "Żebbuġ Gozo",
    "iso2": "65",
    "native": "Żebbuġ Gozo",
    "latitude": "36.07164030",
    "longitude": "14.24540800",
    "type": "local council",
    "timezone": "Europe/Malta",
    "CountryID": 135
  },
  {
    "id": 80,
    "name": "Żebbuġ Malta",
    "iso2": "66",
    "native": "Żebbuġ Malta",
    "latitude": "35.87646480",
    "longitude": "14.43908400",
    "type": "local council",
    "timezone": "Europe/Malta",
    "CountryID": 135
  },
  {
    "id": 135,
    "name": "Żejtun",
    "iso2": "67",
    "native": "Żejtun",
    "latitude": "35.85487140",
    "longitude": "14.53639690",
    "type": "local council",
    "timezone": "Europe/Malta",
    "CountryID": 135
  },
  {
    "id": 76,
    "name": "Żurrieq",
    "iso2": "68",
    "native": "Żurrieq",
    "latitude": "35.82946760",
    "longitude": "14.47451720",
    "type": "local council",
    "timezone": "Europe/Malta",
    "CountryID": 135
  }
]