[
  {
    "id": 15709,
    "name": "Jakar",
    "latitude": "27.54918000",
    "longitude": "90.75250000",
    "CountryID": 26,
    "StateID": 240
  },
  {
    "id": 153824,
    "name": "Tang Valley",
    "latitude": "27.50252420",
    "longitude": "90.74495440",
    "CountryID": 26,
    "StateID": 240
  },
  {
    "id": 153825,
    "name": "Chapchha",
    "latitude": "27.20000000",
    "longitude": "89.55000000",
    "CountryID": 26,
    "StateID": 239
  },
  {
    "id": 15706,
    "name": "Daphu",
    "latitude": "26.96670000",
    "longitude": "89.38330000",
    "CountryID": 26,
    "StateID": 239
  },
  {
    "id": 153827,
    "name": "Khitokha",
    "latitude": "26.90000000",
    "longitude": "89.61670000",
    "CountryID": 26,
    "StateID": 239
  },
  {
    "id": 153826,
    "name": "Lobnig",
    "latitude": "27.15000000",
    "longitude": "89.55000000",
    "CountryID": 26,
    "StateID": 239
  },
  {
    "id": 15726,
    "name": "Pachu",
    "latitude": "26.90000000",
    "longitude": "89.35000000",
    "CountryID": 26,
    "StateID": 239
  },
  {
    "id": 15716,
    "name": "Phuntsholing",
    "latitude": "26.85164000",
    "longitude": "89.38837000",
    "CountryID": 26,
    "StateID": 239
  },
  {
    "id": 15705,
    "name": "Daga",
    "latitude": "27.07529000",
    "longitude": "89.87688000",
    "CountryID": 26,
    "StateID": 238
  },
  {
    "id": 15728,
    "name": "Sibsu",
    "latitude": "27.00000000",
    "longitude": "88.90000000",
    "CountryID": 26,
    "StateID": 238
  },
  {
    "id": 153828,
    "name": "Thumgaon",
    "latitude": "26.98330000",
    "longitude": "89.96670000",
    "CountryID": 26,
    "StateID": 238
  },
  {
    "id": 15707,
    "name": "Gasa",
    "latitude": "27.90372000",
    "longitude": "89.72689000",
    "CountryID": 26,
    "StateID": 229
  },
  {
    "id": 15708,
    "name": "Ha",
    "latitude": "27.38747000",
    "longitude": "89.28074000",
    "CountryID": 26,
    "StateID": 232
  },
  {
    "id": 153829,
    "name": "Naktsang",
    "latitude": "27.38330000",
    "longitude": "89.26670000",
    "CountryID": 26,
    "StateID": 232
  },
  {
    "id": 153830,
    "name": "Sangkari",
    "latitude": "27.30000000",
    "longitude": "89.31670000",
    "CountryID": 26,
    "StateID": 232
  },
  {
    "id": 15710,
    "name": "Lhuentse",
    "latitude": "27.66787000",
    "longitude": "91.18393000",
    "CountryID": 26,
    "StateID": 234
  },
  {
    "id": 153832,
    "name": "Kengkhar",
    "latitude": "27.10000000",
    "longitude": "91.25000000",
    "CountryID": 26,
    "StateID": 242
  },
  {
    "id": 15711,
    "name": "Mongar",
    "latitude": "27.27471000",
    "longitude": "91.23963000",
    "CountryID": 26,
    "StateID": 242
  },
  {
    "id": 153831,
    "name": "Thebong",
    "latitude": "27.26670000",
    "longitude": "91.26670000",
    "CountryID": 26,
    "StateID": 242
  },
  {
    "id": 15714,
    "name": "Paro",
    "latitude": "27.43050000",
    "longitude": "89.41334000",
    "CountryID": 26,
    "StateID": 237
  },
  {
    "id": 153834,
    "name": "Suchha",
    "latitude": "27.23330000",
    "longitude": "89.45000000",
    "CountryID": 26,
    "StateID": 237
  },
  {
    "id": 153833,
    "name": "Tshalunang",
    "latitude": "27.43330000",
    "longitude": "89.65000000",
    "CountryID": 26,
    "StateID": 237
  },
  {
    "id": 153835,
    "name": "Nganglam",
    "latitude": "26.84181100",
    "longitude": "91.24248490",
    "CountryID": 26,
    "StateID": 244
  },
  {
    "id": 15715,
    "name": "Pemagatshel",
    "latitude": "27.03795000",
    "longitude": "91.40305000",
    "CountryID": 26,
    "StateID": 244
  },
  {
    "id": 15712,
    "name": "Pajo",
    "latitude": "27.53333000",
    "longitude": "89.88333000",
    "CountryID": 26,
    "StateID": 235
  },
  {
    "id": 15717,
    "name": "Punākha",
    "latitude": "27.59137000",
    "longitude": "89.87743000",
    "CountryID": 26,
    "StateID": 235
  },
  {
    "id": 15718,
    "name": "Samdrup Jongkhar",
    "latitude": "26.80069000",
    "longitude": "91.50519000",
    "CountryID": 26,
    "StateID": 243
  },
  {
    "id": 153838,
    "name": "Denchukha",
    "latitude": "27.01670000",
    "longitude": "89.25000000",
    "CountryID": 26,
    "StateID": 246
  },
  {
    "id": 153837,
    "name": "Dorokha",
    "latitude": "27.01670000",
    "longitude": "89.21670000",
    "CountryID": 26,
    "StateID": 246
  },
  {
    "id": 15719,
    "name": "Samtse",
    "latitude": "26.89903000",
    "longitude": "89.09951000",
    "CountryID": 26,
    "StateID": 246
  },
  {
    "id": 153836,
    "name": "Tendu",
    "latitude": "27.13330000",
    "longitude": "88.88330000",
    "CountryID": 26,
    "StateID": 246
  },
  {
    "id": 153841,
    "name": "Bhurgaon",
    "latitude": "26.90000000",
    "longitude": "90.43330000",
    "CountryID": 26,
    "StateID": 247
  },
  {
    "id": 153840,
    "name": "Galechugaon",
    "latitude": "27.00000000",
    "longitude": "90.53330000",
    "CountryID": 26,
    "StateID": 247
  },
  {
    "id": 153839,
    "name": "Geylegphug",
    "latitude": "26.87060000",
    "longitude": "90.48560000",
    "CountryID": 26,
    "StateID": 247
  },
  {
    "id": 15720,
    "name": "Sarpang",
    "latitude": "26.86395000",
    "longitude": "90.26745000",
    "CountryID": 26,
    "StateID": 247
  },
  {
    "id": 15722,
    "name": "Thimphu",
    "latitude": "27.46609000",
    "longitude": "89.64191000",
    "CountryID": 26,
    "StateID": 241
  },
  {
    "id": 153842,
    "name": "Shali",
    "latitude": "27.48330000",
    "longitude": "91.56670000",
    "CountryID": 26,
    "StateID": 5242
  },
  {
    "id": 153843,
    "name": "Trashi Yangtse",
    "latitude": "27.58330000",
    "longitude": "91.46670000",
    "CountryID": 26,
    "StateID": 5242
  },
  {
    "id": 153844,
    "name": "Yalang",
    "latitude": "27.43330000",
    "longitude": "91.63330000",
    "CountryID": 26,
    "StateID": 5242
  },
  {
    "id": 153850,
    "name": "Balfai",
    "latitude": "27.21670320",
    "longitude": "91.47940030",
    "CountryID": 26,
    "StateID": 236
  },
  {
    "id": 153846,
    "name": "Ghunkarah",
    "latitude": "27.40000000",
    "longitude": "91.56670000",
    "CountryID": 26,
    "StateID": 236
  },
  {
    "id": 153845,
    "name": "Ngalangkang",
    "latitude": "27.45282330",
    "longitude": "91.56477710",
    "CountryID": 26,
    "StateID": 236
  },
  {
    "id": 153847,
    "name": "Rungzyung",
    "latitude": "27.35000000",
    "longitude": "91.66670000",
    "CountryID": 26,
    "StateID": 236
  },
  {
    "id": 153851,
    "name": "Sassi",
    "latitude": "27.13330000",
    "longitude": "91.43330000",
    "CountryID": 26,
    "StateID": 236
  },
  {
    "id": 153849,
    "name": "Thrimshing",
    "latitude": "27.13330000",
    "longitude": "91.61670000",
    "CountryID": 26,
    "StateID": 236
  },
  {
    "id": 15724,
    "name": "Trashigang",
    "latitude": "27.33310000",
    "longitude": "91.55424000",
    "CountryID": 26,
    "StateID": 236
  },
  {
    "id": 153848,
    "name": "Wamrong",
    "latitude": "27.13784530",
    "longitude": "91.56044470",
    "CountryID": 26,
    "StateID": 236
  },
  {
    "id": 153852,
    "name": "Trongsa",
    "latitude": "27.49940000",
    "longitude": "90.50470000",
    "CountryID": 26,
    "StateID": 245
  },
  {
    "id": 153854,
    "name": "Beteni",
    "latitude": "27.03330000",
    "longitude": "90.23330000",
    "CountryID": 26,
    "StateID": 230
  },
  {
    "id": 153853,
    "name": "Dagapela",
    "latitude": "26.93330000",
    "longitude": "89.95000000",
    "CountryID": 26,
    "StateID": 230
  },
  {
    "id": 15725,
    "name": "Damphu",
    "latitude": "27.01670000",
    "longitude": "90.10000000",
    "CountryID": 26,
    "StateID": 230
  },
  {
    "id": 15727,
    "name": "Tsirang",
    "latitude": "27.02190000",
    "longitude": "90.12291000",
    "CountryID": 26,
    "StateID": 230
  },
  {
    "id": 153856,
    "name": "Manikyangsa",
    "latitude": "27.53330000",
    "longitude": "90.10000000",
    "CountryID": 26,
    "StateID": 231
  },
  {
    "id": 153855,
    "name": "Ritang",
    "latitude": "27.55000000",
    "longitude": "90.16670000",
    "CountryID": 26,
    "StateID": 231
  },
  {
    "id": 15723,
    "name": "Wangdue Phodrang",
    "latitude": "27.48330000",
    "longitude": "89.90000000",
    "CountryID": 26,
    "StateID": 231
  },
  {
    "id": 15713,
    "name": "Panbang",
    "latitude": "26.86667000",
    "longitude": "90.98333000",
    "CountryID": 26,
    "StateID": 233
  },
  {
    "id": 15721,
    "name": "Zhemgang",
    "latitude": "27.21689000",
    "longitude": "90.65793000",
    "CountryID": 26,
    "StateID": 233
  }
]